[root@SiRFprima2 ~]# cat /data/gps/agiin 
$PSRFEPE,,V,,,,,*3D
$GNGGA,,,,,,0,00,,,M,0.0,M,,0000,*7A
$GNGNS,,,,,,NNNN,00,,,0.0,,0000*7D
$GPGSA,A,1,,,,,,,,,,,,,,,,*32
$BDGSA,A,1,,,,,,,,,,,,,,,,*23
$GNRMC,,V,,,,,,,,,,N*4D
$PSRFEPE,,V,,,,,*3D
$GNGGA,,,,,,0,00,,,M,0.0,M,,0000,*7A
$GNGNS,,,,,,NNNN,00,,,0.0,,0000*7D
$GPGSA,A,1,,,,,,,,,,,,,,,,*32
$BDGSA,A,1,,,,,,,,,,,,,,,,*23
$GNRMC,,V,,,,,,,,,,N*4D
$PSRFEPE,,V,,,,,*3D
$GNGGA,,,,,,0,00,,,M,0.0,M,,0000,*7A
$GNGNS,,,,,,NNNN,00,,,0.0,,0000*7D
$GPGSA,A,1,,,,,,,,,,,,,,,,*32
$BDGSA,A,1,,,,,,,,,,,,,,,,*23
$GPGSV,8,1,32,01,00,000,,02,00,000,,03,00,000,,04,00,000,*75
$GPGSV,8,2,32,05,00,000,,06,00,000,,07,00,000,,08,00,000,*7E
$GPGSV,8,3,32,09,00,000,,10,00,000,,11,00,000,,12,00,000,*78
$GPGSV,8,4,32,13,00,000,,14,00,000,,15,00,000,,16,00,000,*70
$GPGSV,8,5,32,17,00,000,,18,00,000,,19,00,000,,20,00,000,*70
$GPGSV,8,6,32,21,00,000,,22,00,000,,23,00,000,,24,00,000,*72
$GPGSV,8,7,32,25,00,000,,26,00,000,,27,00,000,,28,00,000,*7B
$GPGSV,8,8,32,29,00,000,,30,00,000,,31,00,000,,32,00,000,*73
$BDGSV,1,1,,,,,,,,,,,,,0.0*46
$GNRMC,,V,,,,,,,,,,N*4D
$PSRFEPE,,V,,,,,*3D
$GNGGA,,,,,,0,00,,,M,0.0,M,,0000,*7A
$GNGNS,,,,,,NNNN,00,,,0.0,,0000*7D
$GPGSA,A,1,,,,,,,,,,,,,,,,*32
$BDGSA,A,1,,,,,,,,,,,,,,,,*23
$GNRMC,,V,,,,,,,,,,N*4D
$PSRFEPE,,V,,,,,*3D
$GNGGA,,,,,,0,00,,,M,0.0,M,,0000,*7A
$GNGNS,,,,,,NNNN,00,,,0.0,,0000*7D
$GPGSA,A,1,,,,,,,,,,,,,,,,*32
$BDGSA,A,1,,,,,,,,,,,,,,,,*23
$GNRMC,,V,,,,,,,,,,N*4D
$PSRFEPE,,V,,,,,*3D
$GNGGA,,,,,,0,00,,,M,0.0,M,,0000,*7A
$GNGNS,,,,,,NNNN,00,,,0.0,,0000*7D
$GPGSA,A,1,,,,,,,,,,,,,,,,*32
$BDGSA,A,1,,,,,,,,,,,,,,,,*23
$GNRMC,,V,,,,,,,,,,N*4D
$PSRFEPE,,V,,,,,*3D
$GNGGA,,,,,,0,00,,,M,0.0,M,,0000,*7A
$GNGNS,,,,,,NNNN,00,,,0.0,,0000*7D
$GPGSA,A,1,,,,,,,,,,,,,,,,*32
$BDGSA,A,1,,,,,,,,,,,,,,,,*23
$GNRMC,,V,,,,,,,,,,N*4D
$PSRFEPE,,V,,,,,*3D
$GNGGA,,,,,,0,00,,,M,0.0,M,,0000,*7A
$GNGNS,,,,,,NNNN,00,,,0.0,,0000*7D
$GPGSA,A,1,,,,,,,,,,,,,,,,*32
$BDGSA,A,1,,,,,,,,,,,,,,,,*23
$GPGSV,8,1,32,01,00,000,,02,00,000,,03,00,000,,04,00,000,*75
$GPGSV,8,2,32,05,00,000,,06,00,000,,07,00,000,,08,00,000,*7E
$GPGSV,8,3,32,09,00,000,,10,00,000,,11,00,000,,12,00,000,*78
$GPGSV,8,4,32,13,00,000,,14,00,000,,15,00,000,,16,00,000,*70
$GPGSV,8,5,32,17,00,000,,18,00,000,,19,00,000,,20,00,000,*70
$GPGSV,8,6,32,21,00,000,,22,00,000,,23,00,000,,24,00,000,*72
$GPGSV,8,7,32,25,00,000,,26,00,000,,27,00,000,,28,00,000,*7B
$GPGSV,8,8,32,29,00,000,,30,00,000,,31,00,000,,32,00,000,*73
$BDGSV,1,1,,,,,,,,,,,,,0.0*46
$GNRMC,,V,,,,,,,,,,N*4D
$PSRFEPE,,V,,,,,*3D
$GNGGA,,,,,,0,00,,,M,0.0,M,,0000,*7A
$GNGNS,,,,,,NNNN,00,,,0.0,,0000*7D
$GPGSA,A,1,,,,,,,,,,,,,,,,*32
$BDGSA,A,1,,,,,,,,,,,,,,,,*23
$GNRMC,,V,,,,,,,,,,N*4D
$PSRFEPE,,V,,,,,*3D
$GNGGA,,,,,,0,00,,,M,0.0,M,,0000,*7A
$GNGNS,,,,,,NNNN,00,,,0.0,,0000*7D
$GPGSA,A,1,,,,,,,,,,,,,,,,*32
$BDGSA,A,1,,,,,,,,,,,,,,,,*23
$GNRMC,,V,,,,,,,,,,N*4D
$PSRFEPE,,V,,,,,*3D
$GNGGA,,,,,,0,00,,,M,0.0,M,,0000,*7A
$GNGNS,,,,,,NNNN,00,,,0.0,,0000*7D
$GPGSA,A,1,,,,,,,,,,,,,,,,*32
$BDGSA,A,1,,,,,,,,,,,,,,,,*23
$GNRMC,,V,,,,,,,,,,N*4D
$PSRFEPE,,V,,,,,*3D
$GNGGA,,,,,,0,00,,,M,0.0,M,,0000,*7A
$GNGNS,,,,,,NNNN,00,,,0.0,,0000*7D
$GPGSA,A,1,,,,,,,,,,,,,,,,*32
$BDGSA,A,1,,,,,,,,,,,,,,,,*23
$GNRMC,,V,,,,,,,,,,N*4D
$PSRFEPE,,V,,,,,*3D
$GNGGA,,,,,,0,00,,,M,0.0,M,,0000,*7A
$GNGNS,,,,,,NNNN,00,,,0.0,,0000*7D
$GPGSA,A,1,,,,,,,,,,,,,,,,*32
$BDGSA,A,1,,,,,,,,,,,,,,,,*23
$GPGSV,8,1,32,17,00,000,,01,00,000,,02,00,000,,03,00,000,*77
$GPGSV,8,2,32,04,00,000,,05,00,000,,06,00,000,,07,00,000,*72
$GPGSV,8,3,32,08,00,000,,09,00,000,,10,00,000,,11,00,000,*73
$GPGSV,8,4,32,12,00,000,,13,00,000,,14,00,000,,15,00,000,*74
$GPGSV,8,5,32,16,00,000,,18,00,000,,19,00,000,,20,00,000,*71
$GPGSV,8,6,32,21,00,000,,22,00,000,,23,00,000,,24,00,000,*72
$GPGSV,8,7,32,25,00,000,,26,00,000,,27,00,000,,28,00,000,*7B
$GPGSV,8,8,32,29,00,000,,30,00,000,,31,00,000,,32,00,000,*73
$BDGSV,1,1,,,,,,,,,,,,,0.0*46
$GNRMC,,V,,,,,,,,,,N*4D
$PSRFEPE,,V,,,,,*3D
$GNGGA,,,,,,0,00,,,M,0.0,M,,0000,*7A
$GNGNS,,,,,,NNNN,00,,,0.0,,0000*7D
$GPGSA,A,1,,,,,,,,,,,,,,,,*32
$BDGSA,A,1,,,,,,,,,,,,,,,,*23
$GNRMC,,V,,,,,,,,,,N*4D
$PSRFEPE,,V,,,,,*3D
$GNGGA,,,,,,0,00,,,M,0.0,M,,0000,*7A
$GNGNS,,,,,,NNNN,00,,,0.0,,0000*7D
$GPGSA,A,1,,,,,,,,,,,,,,,,*32
$BDGSA,A,1,,,,,,,,,,,,,,,,*23
$GNRMC,,V,,,,,,,,,,N*4D
$PSRFEPE,,V,,,,,*3D
$GNGGA,,,,,,0,00,,,M,0.0,M,,0000,*7A
$GNGNS,,,,,,NNNN,00,,,0.0,,0000*7D
$GPGSA,A,1,,,,,,,,,,,,,,,,*32
$BDGSA,A,1,,,,,,,,,,,,,,,,*23
$GNRMC,,V,,,,,,,,,,N*4D
$PSRFEPE,,V,,,,,*3D
$GNGGA,,,,,,0,00,,,M,0.0,M,,0000,*7A
$GNGNS,,,,,,NNNN,00,,,0.0,,0000*7D
$GPGSA,A,1,,,,,,,,,,,,,,,,*32
$BDGSA,A,1,,,,,,,,,,,,,,,,*23
$GNRMC,,V,,,,,,,,,,N*4D
$PSRFEPE,,V,,,,,*3D
$GNGGA,,,,,,0,00,,,M,0.0,M,,0000,*7A
$GNGNS,,,,,,NNNN,00,,,0.0,,0000*7D
$GPGSA,A,1,,,,,,,,,,,,,,,,*32
$BDGSA,A,1,,,,,,,,,,,,,,,,*23
$GPGSV,8,1,32,01,00,000,,02,00,000,,03,00,000,,04,00,000,*75
$GPGSV,8,2,32,05,00,000,,06,00,000,,07,00,000,,08,00,000,*7E
$GPGSV,8,3,32,09,00,000,,10,00,000,,11,00,000,,12,00,000,*78
$GPGSV,8,4,32,13,00,000,,14,00,000,,15,00,000,,16,00,000,*70
$GPGSV,8,5,32,17,00,000,,18,00,000,,19,00,000,,20,00,000,*70
$GPGSV,8,6,32,21,00,000,,22,00,000,,23,00,000,,24,00,000,*72
$GPGSV,8,7,32,25,00,000,,26,00,000,,27,00,000,,28,00,000,*7B
$GPGSV,8,8,32,29,00,000,,30,00,000,,31,00,000,,32,00,000,*73
$BDGSV,1,1,,,,,,,,,,,,,0.0*46
$GNRMC,,V,,,,,,,,,,N*4D
$PSRFEPE,,V,,,,,*3D
$GNGGA,,,,,,0,00,,,M,0.0,M,,0000,*7A
$GNGNS,,,,,,NNNN,00,,,0.0,,0000*7D
$GPGSA,A,1,,,,,,,,,,,,,,,,*32
$BDGSA,A,1,,,,,,,,,,,,,,,,*23
$GNRMC,,V,,,,,,,,,,N*4D
$PSRFEPE,,V,,,,,*3D
$GNGGA,,,,,,0,00,,,M,0.0,M,,0000,*7A
$GNGNS,,,,,,NNNN,00,,,0.0,,0000*7D
$GPGSA,A,1,,,,,,,,,,,,,,,,*32
$BDGSA,A,1,,,,,,,,,,,,,,,,*23
$GNRMC,,V,,,,,,,,,,N*4D
$PSRFEPE,,V,,,,,*3D
$GNGGA,,,,,,0,00,,,M,0.0,M,,0000,*7A
$GNGNS,,,,,,NNNN,00,,,0.0,,0000*7D
$GPGSA,A,1,,,,,,,,,,,,,,,,*32
$BDGSA,A,1,,,,,,,,,,,,,,,,*23
$GNRMC,,V,,,,,,,,,,N*4D
$PSRFEPE,,V,,,,,*3D
$GNGGA,,,,,,0,00,,,M,0.0,M,,0000,*7A
$GNGNS,,,,,,NNNN,00,,,0.0,,0000*7D
$GPGSA,A,1,,,,,,,,,,,,,,,,*32
$BDGSA,A,1,,,,,,,,,,,,,,,,*23
$GNRMC,,V,,,,,,,,,,N*4D
$PSRFEPE,,V,,,,,*3D
$GNGGA,,,,,,0,00,,,M,0.0,M,,0000,*7A
$GNGNS,,,,,,NNNN,00,,,0.0,,0000*7D
$GPGSA,A,1,,,,,,,,,,,,,,,,*32
$BDGSA,A,1,,,,,,,,,,,,,,,,*23
$GPGSV,8,1,32,05,00,000,,06,00,000,,07,00,000,,08,00,000,*7D
$GPGSV,8,2,32,09,00,000,,11,00,000,,16,00,000,,18,00,000,*75
$GPGSV,8,3,32,19,00,000,,21,00,000,,22,00,000,,25,00,000,*7F
$GPGSV,8,4,32,26,00,000,,28,00,000,,32,00,000,,01,00,000,*7A
$GPGSV,8,5,32,02,00,000,,03,00,000,,04,00,000,,10,00,000,*71
$GPGSV,8,6,32,12,00,000,,13,00,000,,14,00,000,,15,00,000,*76
$GPGSV,8,7,32,17,00,000,,20,00,000,,23,00,000,,24,00,000,*74
$GPGSV,8,8,32,27,00,000,,29,00,000,,30,00,000,,31,00,000,*77
$BDGSV,1,1,,,,,,,,,,,,,0.0*46
$GNRMC,,V,,,,,,,,,,N*4D
$PSRFEPE,,V,,,,,*3D
$GNGGA,,,,,,0,00,,,M,0.0,M,,0000,*7A
$GNGNS,,,,,,NNNN,00,,,0.0,,0000*7D
$GPGSA,A,1,,,,,,,,,,,,,,,,*32
$BDGSA,A,1,,,,,,,,,,,,,,,,*23
$GNRMC,,V,,,,,,,,,,N*4D
$PSRFEPE,,V,,,,,*3D
$GNGGA,,,,,,0,00,,,M,0.0,M,,0000,*7A
$GNGNS,,,,,,NNNN,00,,,0.0,,0000*7D
$GPGSA,A,1,,,,,,,,,,,,,,,,*32
$BDGSA,A,1,,,,,,,,,,,,,,,,*23
$GNRMC,,V,,,,,,,,,,N*4D
$PSRFEPE,,V,,,,,*3D
$GNGGA,,,,,,0,00,,,M,0.0,M,,0000,*7A
$GNGNS,,,,,,NNNN,00,,,0.0,,0000*7D
$GPGSA,A,1,,,,,,,,,,,,,,,,*32
$BDGSA,A,1,,,,,,,,,,,,,,,,*23
$GNRMC,,V,,,,,,,,,,N*4D
$PSRFEPE,074109.799,V,,,,,*2F
$GNGGA,074109.799,,,,,0,00,,,M,0.0,M,,0000,*68
$GNGNS,074109.799,,,,,NNNN,00,,,0.0,,0000*6F
$GPGSA,A,1,,,,,,,,,,,,,,,,*32
$BDGSA,A,1,,,,,,,,,,,,,,,,*23
$GNRMC,074109.799,V,,,,,,,,,,N*5F
$PSRF151,2,0,28688,0xFFFFFFFF*54
$PSRFEPE,074110.799,V,,,,,*27
$GNGGA,074110.799,,,,,0,00,,,M,0.0,M,,0000,*60
$GNGNS,074110.799,,,,,NNNN,00,,,0.0,,0000*67
$GPGSA,A,1,,,,,,,,,,,,,,,,*32
$BDGSA,A,1,,,,,,,,,,,,,,,,*23
$GPGSV,8,1,32,03,00,000,,05,00,000,,06,00,000,,07,00,000,29*7D
$GPGSV,8,2,32,08,00,000,,09,00,000,20,11,00,000,27,16,00,000,*73
$GPGSV,8,3,32,18,00,000,,20,00,000,,21,00,000,,25,00,000,26*78
$GPGSV,8,4,32,26,00,000,,28,00,000,,32,00,000,26,01,00,000,*7E
$GPGSV,8,5,32,02,00,000,,04,00,000,,10,00,000,,12,00,000,*71
$GPGSV,8,6,32,13,00,000,,14,00,000,,15,00,000,,17,00,000,*73
$GPGSV,8,7,32,19,00,000,,22,00,000,,23,00,000,,24,00,000,*78
$GPGSV,8,8,32,27,00,000,,29,00,000,,30,00,000,,31,00,000,*77
$BDGSV,1,1,,,,,,,,,,,,,0.0*46
$GNRMC,074110.799,V,,,,,,,,,,N*57
$PSRFEPE,074111.799,V,,,,,*26
$GNGGA,074111.799,,,,,0,00,,,M,0.0,M,,0000,*61
$GNGNS,074111.799,,,,,NNNN,00,,,0.0,,0000*66
$GPGSA,A,1,,,,,,,,,,,,,,,,*32
$BDGSA,A,1,,,,,,,,,,,,,,,,*23
$GNRMC,074111.799,V,,,,,,,,,,N*56
$PSRFEPE,074112.799,V,,,,,*25
$GNGGA,074112.799,,,,,0,00,,,M,0.0,M,,0000,*62
$GNGNS,074112.799,,,,,NNNN,00,,,0.0,,0000*65
$GPGSA,A,1,,,,,,,,,,,,,,,,*32
$BDGSA,A,1,,,,,,,,,,,,,,,,*23
$GNRMC,074112.799,V,,,,,,,,,,N*55
$PSRFEPE,074113.799,V,,,,,*24
$GNGGA,074113.799,,,,,0,00,,,M,0.0,M,,0000,*63
$GNGNS,074113.799,,,,,NNNN,00,,,0.0,,0000*64
$GPGSA,A,1,,,,,,,,,,,,,,,,*32
$BDGSA,A,1,,,,,,,,,,,,,,,,*23
$GNRMC,074113.799,V,,,,,,,,,,N*54
$PSRFEPE,074114.799,V,,,,,*23
$GNGGA,074114.799,,,,,0,00,,,M,0.0,M,,0000,*64
$GNGNS,074114.799,,,,,NNNN,00,,,0.0,,0000*63
$GPGSA,A,1,,,,,,,,,,,,,,,,*32
$BDGSA,A,1,,,,,,,,,,,,,,,,*23
$GNRMC,074114.799,V,,,,,,,,,,N*53
$PSRFEPE,074115.799,V,,,,,*22
$GNGGA,074115.799,,,,,0,00,,,M,0.0,M,,0000,*65
$GNGNS,074115.799,,,,,NNNN,00,,,0.0,,0000*62
$GPGSA,A,1,,,,,,,,,,,,,,,,*32
$BDGSA,A,1,,,,,,,,,,,,,,,,*23
$GPGSV,8,1,31,01,00,000,,03,00,000,,05,00,000,,06,00,000,*73
$GPGSV,8,2,31,07,00,000,,08,00,000,26,11,00,000,28,16,00,000,*77
$GPGSV,8,3,31,18,00,000,,20,00,000,,21,00,000,,25,00,000,50*7A
$GPGSV,8,4,31,26,00,000,,28,00,000,,32,00,000,46,02,00,000,*78
$GPGSV,8,5,31,04,00,000,,09,00,000,,10,00,000,,12,00,000,*79
$GPGSV,8,6,31,13,00,000,,14,00,000,,15,00,000,,17,00,000,*70
$GPGSV,8,7,31,19,00,000,,22,00,000,,23,00,000,,24,00,000,*7B
$GPGSV,8,8,31,27,00,000,,29,00,000,,30,00,000,*46
$BDGSV,1,1,01,02,00,000,35*5D
$GNRMC,074115.799,V,,,,,,,,,,N*52
$PSRFEPE,074116.799,V,,,,,*21
$GNGGA,074116.799,,,,,0,00,,,M,0.0,M,,0000,*66
$GNGNS,074116.799,,,,,NNNN,00,,,0.0,,0000*61
$GPGSA,A,1,,,,,,,,,,,,,,,,*32
$BDGSA,A,1,,,,,,,,,,,,,,,,*23
$GNRMC,074116.799,V,,,,,,,,,,N*51
$PSRFEPE,074117.799,V,,,,,*20
$GNGGA,074117.799,,,,,0,00,,,M,0.0,M,,0000,*67
$GNGNS,074117.799,,,,,NNNN,00,,,0.0,,0000*60
$GPGSA,A,1,,,,,,,,,,,,,,,,*32
$BDGSA,A,1,,,,,,,,,,,,,,,,*23
$GNRMC,074117.799,V,,,,,,,,,,N*50
$PSRFEPE,074118.799,V,,,,,*2F
$GNGGA,074118.799,,,,,0,00,,,M,0.0,M,,0000,*68
$GNGNS,074118.799,,,,,NNNN,00,,,0.0,,0000*6F
$GPGSA,A,1,,,,,,,,,,,,,,,,*32
$BDGSA,A,1,,,,,,,,,,,,,,,,*23
$GNRMC,074118.799,V,,,,,,,,,,N*5F
$PSRFEPE,074119.799,V,,,,,*2E
$GNGGA,074119.799,,,,,0,00,,,M,0.0,M,,0000,*69
$GNGNS,074119.799,,,,,NNNN,00,,,0.0,,0000*6E
$GPGSA,A,1,,,,,,,,,,,,,,,,*32
$BDGSA,A,1,,,,,,,,,,,,,,,,*23
$GNRMC,074119.799,V,,,,,,,,,,N*5E
$PSRFEPE,074120.799,V,,,,,*24
$GNGGA,074120.799,,,,,0,00,,,M,0.0,M,,0000,*63
$GNGNS,074120.799,,,,,NNNN,00,,,0.0,,0000*64
$GPGSA,A,1,,,,,,,,,,,,,,,,*32
$BDGSA,A,1,,,,,,,,,,,,,,,,*23
$GPGSV,6,1,24,01,61,030,22,03,00,000,,05,58,200,26,06,00,000,*76
$GPGSV,6,2,24,07,00,000,23,08,00,000,26,09,00,000,,11,00,000,28*72
$GPGSV,6,3,24,16,00,000,,18,00,000,,20,77,080,,25,00,000,50*7C
$GPGSV,6,4,24,26,00,000,28,28,30,186,,32,58,061,47,17,75,005,*7C
$GPGSV,6,5,24,10,38,047,,12,31,189,,24,29,058,,04,25,063,*72
$GPGSV,6,6,24,02,19,270,,13,17,114,,23,05,040,,29,04,307,*7B
$BDGSV,2,1,07,01,00,000,45,02,13,089,35,03,00,000,37,05,27,090,*65
$BDGSV,2,2,07,13,19,016,,11,07,147,,09,03,047,*5E
$GNRMC,074120.799,V,,,,,,,250215,,,N*55
$PSRF151,3,1833,28689,0xFFFFFFFF*6D
$PSRFEPE,074121.799,V,,,,,*25
$GNGGA,074121.799,,,,,0,00,,,M,0.0,M,,0000,*62
$GNGNS,074121.799,,,,,NNNN,00,,,0.0,,0000*65
$GPGSA,A,1,,,,,,,,,,,,,,,,*32
$BDGSA,A,1,,,,,,,,,,,,,,,,*23
$GNRMC,074121.799,V,,,,,,,250215,,,N*54
$PSRFEPE,074122.799,V,,,,,*26
$GNGGA,074122.799,,,,,0,00,,,M,0.0,M,,0000,*61
$GNGNS,074122.799,,,,,NNNN,00,,,0.0,,0000*66
$GPGSA,A,1,,,,,,,,,,,,,,,,*32
$BDGSA,A,1,,,,,,,,,,,,,,,,*23
$GNRMC,074122.799,V,,,,,,,250215,,,N*57
$PSRFEPE,074123.799,V,,,,,*27
$GNGGA,074123.799,,,,,0,00,,,M,0.0,M,,0000,*60
$GNGNS,074123.799,,,,,NNNN,00,,,0.0,,0000*67
$GPGSA,A,1,,,,,,,,,,,,,,,,*32
$BDGSA,A,1,,,,,,,,,,,,,,,,*23
$GNRMC,074123.799,V,,,,,,,250215,,,N*56
$PSRFEPE,074124.799,V,,,,,*20
$GNGGA,074124.799,,,,,0,00,,,M,0.0,M,,0000,*67
$GNGNS,074124.799,,,,,NNNN,00,,,0.0,,0000*60
$GPGSA,A,1,,,,,,,,,,,,,,,,*32
$BDGSA,A,1,,,,,,,,,,,,,,,,*23
$GNRMC,074124.799,V,,,,,,,250215,,,N*51
$PSRFEPE,074125.799,V,,,,,*21
$GNGGA,074125.799,,,,,0,00,,,M,0.0,M,,0000,*66
$GNGNS,074125.799,,,,,NNNN,00,,,0.0,,0000*61
$GPGSA,A,1,,,,,,,,,,,,,,,,*32
$BDGSA,A,1,,,,,,,,,,,,,,,,*23
$GPGSV,6,1,24,01,61,030,24,03,00,000,,05,58,200,26,06,00,000,*70
$GPGSV,6,2,24,07,00,000,22,08,00,000,,09,00,000,,11,00,000,27*78
$GPGSV,6,3,24,14,00,000,49,18,00,000,,20,77,080,,25,00,000,50*73
$GPGSV,6,4,24,26,00,000,28,28,30,186,25,32,58,061,47,17,75,005,*7B
$GPGSV,6,5,24,10,38,047,,12,31,189,,24,29,059,,04,25,063,*73
$GPGSV,6,6,24,02,19,271,,13,17,114,,23,05,040,,29,04,307,*7A
$BDGSV,2,1,07,01,00,000,45,02,13,089,35,03,00,000,37,05,27,090,*65
$BDGSV,2,2,07,13,19,016,,11,07,147,,09,03,047,*5E
$GNRMC,074125.799,V,,,,,,,250215,,,N*50
$PSRFEPE,074126.799,V,,,,,*22
$GNGGA,074126.799,,,,,0,00,,,M,0.0,M,,0000,*65
$GNGNS,074126.799,,,,,NNNN,00,,,0.0,,0000*62
$GPGSA,A,1,,,,,,,,,,,,,,,,*32
$BDGSA,A,1,,,,,,,,,,,,,,,,*23
$GNRMC,074126.799,V,,,,,,,250215,,,N*53
$PSRFEPE,074127.799,V,,,,,*23
$GNGGA,074127.799,,,,,0,00,,,M,0.0,M,,0000,*64
$GNGNS,074127.799,,,,,NNNN,00,,,0.0,,0000*63
$GPGSA,A,1,,,,,,,,,,,,,,,,*32
$BDGSA,A,1,,,,,,,,,,,,,,,,*23
$GNRMC,074127.799,V,,,,,,,250215,,,N*52
$PSRFEPE,074128.799,V,,,,,*2C
$GNGGA,074128.799,,,,,0,00,,,M,0.0,M,,0000,*6B
$GNGNS,074128.799,,,,,NNNN,00,,,0.0,,0000*6C
$GPGSA,A,1,,,,,,,,,,,,,,,,*32
$BDGSA,A,1,,,,,,,,,,,,,,,,*23
$GNRMC,074128.799,V,,,,,,,250215,,,N*5D
$PSRF151,3,1833,28690,0xFFFFFFFF*65
$PSRFEPE,074129.799,V,,,,,*2D
$GNGGA,074129.799,,,,,0,00,,,M,0.0,M,,0000,*6A
$GNGNS,074129.799,,,,,NNNN,00,,,0.0,,0000*6D
$GPGSA,A,1,,,,,,,,,,,,,,,,*32
$BDGSA,A,1,,,,,,,,,,,,,,,,*23
$GNRMC,074129.799,V,,,,,,,250215,,,N*5C
$PSRFEPE,074130.799,V,,,,,*25
$GNGGA,074130.799,,,,,0,00,,,M,0.0,M,,0000,*62
$GNGNS,074130.799,,,,,NNNN,00,,,0.0,,0000*65
$GPGSA,A,1,,,,,,,,,,,,,,,,*32
$BDGSA,A,1,,,,,,,,,,,,,,,,*23
$GPGSV,7,1,25,01,33,055,26,05,00,097,26,06,00,000,22,07,00,000,22*73
$GPGSV,7,2,25,08,00,000,26,09,28,185,25,11,00,000,28,12,00,000,42*70
$GPGSV,7,3,25,14,10,238,49,20,18,069,,21,00,000,22,25,19,275,50*77
$GPGSV,7,4,25,26,00,000,28,28,00,000,22,32,20,051,47,31,53,236,*7E
$GPGSV,7,5,25,29,49,191,,27,42,205,,17,31,074,,15,28,328,*77
$GPGSV,7,6,25,10,25,030,,02,21,151,,23,20,352,,24,15,023,*7A
$GPGSV,7,7,25,04,09,021,*40
$BDGSV,2,1,07,01,00,000,45,02,13,089,35,03,00,000,37,04,00,000,42*6E
$BDGSV,2,2,07,05,27,090,,13,19,016,,11,07,147,*5E
$GNRMC,074130.799,V,,,,,,,250215,,,N*54
$PSRFEPE,074131.799,V,,,,,*24
$GNGGA,074131.799,,,,,0,00,,,M,0.0,M,,0000,*63
$GNGNS,074131.799,,,,,NNNN,00,,,0.0,,0000*64
$GPGSA,A,1,,,,,,,,,,,,,,,,*32
$BDGSA,A,1,,,,,,,,,,,,,,,,*23
$GNRMC,074131.799,V,,,,,,,250215,,,N*55
$PSRFEPE,074132.799,V,,,,,*27
$GNGGA,074132.799,,,,,0,00,,,M,0.0,M,,0000,*60
$GNGNS,074132.799,,,,,NNNN,00,,,0.0,,0000*67
$GPGSA,A,1,,,,,,,,,,,,,,,,*32
$BDGSA,A,1,,,,,,,,,,,,,,,,*23
$GNRMC,074132.799,V,,,,,,,250215,,,N*56
$PSRFEPE,074133.799,V,,,,,*26
$GNGGA,074133.799,,,,,0,00,,,M,0.0,M,,0000,*61
$GNGNS,074133.799,,,,,NNNN,00,,,0.0,,0000*66
$GPGSA,A,1,,,,,,,,,,,,,,,,*32
$BDGSA,A,1,,,,,,,,,,,,,,,,*23
$GNRMC,074133.799,V,,,,,,,250215,,,N*57
$PSRFEPE,074134.799,V,,,,,*21
$GNGGA,074134.799,,,,,0,00,,,M,0.0,M,,0000,*66
$GNGNS,074134.799,,,,,NNNN,00,,,0.0,,0000*61
$GPGSA,A,1,,,,,,,,,,,,,,,,*32
$BDGSA,A,1,,,,,,,,,,,,,,,,*23
$GNRMC,074134.799,V,,,,,,,250215,,,N*50
$PSRFEPE,074135.799,V,,,,,*20
$GNGGA,074135.799,,,,,0,00,,,M,0.0,M,,0000,*67
$GNGNS,074135.799,,,,,NNNN,00,,,0.0,,0000*60
$GPGSA,A,1,,,,,,,,,,,,,,,,*32
$BDGSA,A,1,,,,,,,,,,,,,,,,*23
$GPGSV,7,1,25,03,00,000,24,05,00,097,26,06,00,000,22,08,00,000,26*78
$GPGSV,7,2,25,09,28,185,,11,00,000,28,12,00,000,42,14,10,238,49*7B
$GPGSV,7,3,25,18,00,000,24,20,18,069,23,21,00,000,24,25,48,258,50*74
$GPGSV,7,4,25,26,00,000,,29,49,191,43,32,12,329,47,31,53,236,*7B
$GPGSV,7,5,25,27,42,205,,01,33,055,,17,31,074,,15,28,328,*79
$GPGSV,7,6,25,10,25,030,,02,21,151,,23,20,351,,24,15,023,*79
$GPGSV,7,7,25,04,09,021,*40
$BDGSV,2,1,07,01,00,000,45,02,13,089,35,03,00,000,37,04,00,000,42*6E
$BDGSV,2,2,07,05,27,090,,13,19,016,,11,07,147,*5E
$GNRMC,074135.799,V,,,,,,,250215,,,N*51
$PSRFEPE,074136.799,V,,,,,*23
$GNGGA,074136.799,,,,,0,00,,,M,0.0,M,,0000,*64
$GNGNS,074136.799,,,,,NNNN,00,,,0.0,,0000*63
$GPGSA,A,1,,,,,,,,,,,,,,,,*32
$BDGSA,A,1,,,,,,,,,,,,,,,,*23
$GNRMC,074136.799,V,,,,,,,250215,,,N*52
$PSRF151,3,1833,28691,0x7EFFFFFF*16
$PSRFEPE,074137.799,V,,,,,*22
$GNGGA,074137.799,,,,,0,00,,,M,0.0,M,,0000,*65
$GNGNS,074137.799,,,,,NNNN,00,,,0.0,,0000*62
$GPGSA,A,1,,,,,,,,,,,,,,,,*32
$BDGSA,A,1,,,,,,,,,,,,,,,,*23
$GNRMC,074137.799,V,,,,,,,250215,,,N*53
$PSRFEPE,074138.799,V,,,,,*2D
$GNGGA,074138.799,,,,,0,00,,,M,0.0,M,,0000,*6A
$GNGNS,074138.799,,,,,NNNN,00,,,0.0,,0000*6D
$GPGSA,A,1,,,,,,,,,,,,,,,,*32
$BDGSA,A,1,,,,,,,,,,,,,,,,*23
$GNRMC,074138.799,V,,,,,,,250215,,,N*5C
$PSRFEPE,074139.799,V,,,,,*2C
$GNGGA,074139.799,,,,,0,00,,,M,0.0,M,,0000,*6B
$GNGNS,074139.799,,,,,NNNN,00,,,0.0,,0000*6C
$GPGSA,A,1,,,,,,,,,,,,,,,,*32
$BDGSA,A,1,,,,,,,,,,,,,,,,*23
$GNRMC,074139.799,V,,,,,,,250215,,,N*5D
$PSRFEPE,074140.799,V,,,,,*22
$GNGGA,074140.799,,,,,0,00,,,M,0.0,M,,0000,*65
$GNGNS,074140.799,,,,,NNNN,00,,,0.0,,0000*62
$GPGSA,A,1,,,,,,,,,,,,,,,,*32
$BDGSA,A,1,,,,,,,,,,,,,,,,*23
$GPGSV,6,1,24,01,04,337,23,03,00,000,22,05,00,000,26,06,00,000,23*7E
$GPGSV,6,2,24,07,00,000,21,08,00,000,27,11,00,000,29,12,00,000,43*7D
$GPGSV,6,3,24,14,17,106,49,18,26,178,24,21,00,000,25,25,45,068,51*7E
$GPGSV,6,4,24,28,00,000,,29,09,052,43,32,58,255,47,15,69,293,*7B
$GPGSV,6,5,24,23,44,293,,30,36,171,,31,32,061,,22,31,181,*7A
$GPGSV,6,6,24,10,15,318,,24,15,305,,04,13,300,,27,12,063,*72
$BDGSV,2,1,08,01,00,000,45,02,13,089,35,03,00,000,37,04,00,000,42*61
$BDGSV,2,2,08,05,27,090,,13,19,016,,11,07,147,,09,03,047,*68
$GNRMC,074140.799,V,,,,,,,250215,,,N*53
$PSRFEPE,074141.799,V,,,,,*23
$GNGGA,074141.799,,,,,0,00,,,M,0.0,M,,0000,*64
$GNGNS,074141.799,,,,,NNNN,00,,,0.0,,0000*63
$GPGSA,A,1,,,,,,,,,,,,,,,,*32
$BDGSA,A,1,,,,,,,,,,,,,,,,*23
$GNRMC,074141.799,V,,,,,,,250215,,,N*52
$PSRFEPE,074142.799,V,,,,,*20
$GNGGA,074142.799,,,,,0,00,,,M,0.0,M,,0000,*67
$GNGNS,074142.799,,,,,NNNN,00,,,0.0,,0000*60
$GPGSA,A,1,,,,,,,,,,,,,,,,*32
$BDGSA,A,1,,,,,,,,,,,,,,,,*23
$GNRMC,074142.799,V,,,,,,,250215,,,N*51
$PSRFEPE,074143.799,V,,,,,*21
$GNGGA,074143.799,,,,,0,00,,,M,0.0,M,,0000,*66
$GNGNS,074143.799,,,,,NNNN,00,,,0.0,,0000*61
$GPGSA,A,1,,,,,,,,,,,,,,,,*32
$BDGSA,A,1,,,,,,,,,,,,,,,,*23
$GNRMC,074143.799,V,,,,,,,250215,,,N*50
$PSRFEPE,074144.799,V,,,,,*26
$GNGGA,074144.799,,,,,0,00,,,M,0.0,M,,0000,*61
$GNGNS,074144.799,,,,,NNNN,00,,,0.0,,0000*66
$GPGSA,A,1,,,,,,,,,,,,,,,,*32
$BDGSA,A,1,,,,,,,,,,,,,,,,*23
$GNRMC,074144.799,V,,,,,,,250215,,,N*57
$PSRF151,3,1833,28692,0x7EFFFFFF*15
$PSRFEPE,074145.799,V,,,,,*27
$GNGGA,074145.799,,,,,0,00,,,M,0.0,M,,0000,*60
$GNGNS,074145.799,,,,,NNNN,00,,,0.0,,0000*67
$GPGSA,A,1,,,,,,,,,,,,,,,,*32
$BDGSA,A,1,,,,,,,,,,,,,,,,*23
$GPGSV,6,1,24,01,30,046,23,03,00,000,22,05,00,000,26,06,00,000,22*7D
$GPGSV,6,2,24,08,00,000,26,09,27,171,22,11,00,000,28,12,00,000,42*73
$GPGSV,6,3,24,14,31,261,48,20,15,059,,25,52,244,51,26,00,000,22*7C
$GPGSV,6,4,24,28,00,000,27,29,49,174,43,32,14,319,46,31,55,220,*7E
$GPGSV,6,5,24,27,43,190,,15,30,319,,17,27,064,,10,24,021,*7F
$GPGSV,6,6,24,23,21,343,,02,19,139,,24,14,014,,04,08,012,*71
$BDGSV,2,1,08,01,00,000,45,02,13,089,35,03,00,000,37,04,00,000,42*61
$BDGSV,2,2,08,05,27,090,,13,19,016,,11,07,147,,09,03,047,*68
$GNRMC,074145.799,V,,,,,,,250215,,,N*56
$PSRFEPE,074146.799,V,,,,,*24
$GNGGA,074146.799,,,,,0,00,,,M,0.0,M,,0000,*63
$GNGNS,074146.799,,,,,NNNN,00,,,0.0,,0000*64
$GPGSA,A,1,,,,,,,,,,,,,,,,*32
$BDGSA,A,1,,,,,,,,,,,,,,,,*23
$GNRMC,074146.799,V,,,,,,,250215,,,N*55
$PSRFEPE,074147.799,V,,,,,*25
$GNGGA,074147.799,,,,,0,00,,,M,0.0,M,,0000,*62
$GNGNS,074147.799,,,,,NNNN,00,,,0.0,,0000*65
$GPGSA,A,1,,,,,,,,,,,,,,,,*32
$BDGSA,A,1,,,,,,,,,,,,,,,,*23
$GNRMC,074147.799,V,,,,,,,250215,,,N*54
$PSRFEPE,074148.799,V,,,,,*2A
$GNGGA,074148.799,,,,,0,00,,,M,0.0,M,,0000,*6D
$GNGNS,074148.799,,,,,NNNN,00,,,0.0,,0000*6A
$GPGSA,A,1,,,,,,,,,,,,,,,,*32
$BDGSA,A,1,,,,,,,,,,,,,,,,*23
$GNRMC,074148.799,V,,,,,,,250215,,,N*5B
$PSRFEPE,074149.799,V,,,,,*2B
$GNGGA,074149.799,,,,,0,00,,,M,0.0,M,,0000,*6C
$GNGNS,074149.799,,,,,NNNN,00,,,0.0,,0000*6B
$GPGSA,A,1,,,,,,,,,,,,,,,,*32
$BDGSA,A,1,,,,,,,,,,,,,,,,*23
$GNRMC,074149.799,V,,,,,,,250215,,,N*5A
$PSRFEPE,074150.799,V,,,,,*23
$GNGGA,074150.799,,,,,0,00,,,M,0.0,M,,0000,*64
$GNGNS,074150.799,,,,,NNNN,00,,,0.0,,0000*63
$GPGSA,A,1,,,,,,,,,,,,,,,,*32
$BDGSA,A,1,,,,,,,,,,,,,,,,*23
$GPGSV,7,1,25,01,30,046,22,05,00,000,27,07,00,000,24,08,00,000,27*74
$GPGSV,7,2,25,09,27,171,25,11,00,000,29,12,00,000,42,14,31,261,49*76
$GPGSV,7,3,25,18,00,000,25,21,00,000,24,25,52,244,51,26,00,000,21*70
$GPGSV,7,4,25,28,00,000,27,29,49,174,42,32,14,319,46,31,55,220,*7F
$GPGSV,7,5,25,27,43,190,,15,30,319,,17,27,064,,10,24,021,*7F
$GPGSV,7,6,25,23,21,343,,02,19,139,,20,15,059,,24,14,014,*74
$GPGSV,7,7,25,04,08,012,*41
$BDGSV,2,1,07,01,00,000,45,02,01,090,35,03,00,000,38,04,00,000,42*6A
$BDGSV,2,2,07,05,27,090,,13,19,016,,11,07,147,*5E
$GNRMC,074150.799,V,,,,,,,250215,,,N*52
$PSRFEPE,074151.799,V,,,,,*22
$GNGGA,074151.799,,,,,0,00,,,M,0.0,M,,0000,*65
$GNGNS,074151.799,,,,,NNNN,00,,,0.0,,0000*62
$GPGSA,A,1,,,,,,,,,,,,,,,,*32
$BDGSA,A,1,,,,,,,,,,,,,,,,*23
$GNRMC,074151.799,V,,,,,,,250215,,,N*53
$PSRFEPE,074152.799,V,,,,,*21
$GNGGA,074152.799,,,,,0,00,,,M,0.0,M,,0000,*66
$GNGNS,074152.799,,,,,NNNN,00,,,0.0,,0000*61
$GPGSA,A,1,,,,,,,,,,,,,,,,*32
$BDGSA,A,1,,,,,,,,,,,,,,,,*23
$GNRMC,074152.799,V,,,,,,,250215,,,N*50
$PSRF151,3,1833,28692,0x7EFFFFFF*15
$PSRFEPE,074153.799,V,,,,,*20
$GNGGA,074153.799,,,,,0,00,,,M,0.0,M,,0000,*67
$GNGNS,074153.799,,,,,NNNN,00,,,0.0,,0000*60
$GPGSA,A,1,,,,,,,,,,,,,,,,*32
$BDGSA,A,1,,,,,,,,,,,,,,,,*23
$GNRMC,074153.799,V,,,,,,,250215,,,N*51
$PSRFEPE,074154.799,V,,,,,*27
$GNGGA,074154.799,,,,,0,00,,,M,0.0,M,,0000,*60
$GNGNS,074154.799,,,,,NNNN,00,,,0.0,,0000*67
$GPGSA,A,1,,,,,,,,,,,,,,,,*32
$BDGSA,A,1,,,,,,,,,,,,,,,,*23
$GNRMC,074154.799,V,,,,,,,250215,,,N*56
$PSRFEPE,074155.799,A,1.3,10.59,52.97,0.6,180.0*16
$GNGGA,074155.799,3114.8770,N,12135.2463,E,1,05,1.3,156.9,M,8.3,M,,0000,4.9*77
$GNGNS,074155.799,3114.8770,N,12135.2463,E,ANNA,05,1.3,156.9,8.3,,0000*52
$GPGSA,A,3,25,32,,,,,,,,,,,5.1,1.3,4.9,3.3*3D
$BDGSA,A,3,02,03,04,,,,,,,,,,5.1,1.3,4.9,3.3*2F
$GPGSV,5,1,20,25,76,102,50,32,29,284,47,01,02,001,24,07,00,000,23*7A
$GPGSV,5,2,20,08,00,000,46,09,19,094,,12,00,000,44,14,68,202,49*7F
$GPGSV,5,3,20,18,13,225,27,20,00,000,29,22,16,229,37,26,00,000,24*77
$GPGSV,5,4,20,28,00,000,24,29,35,080,43,31,62,089,,15,42,298,*72
$GPGSV,5,5,20,27,40,094,,30,24,225,,23,22,310,,10,05,340,*77
$BDGSV,3,1,12,02,33,240,35,03,51,201,37,04,35,123,42,01,42,130,45*6B
$BDGSV,3,2,12,10,64,323,,07,64,320,,06,55,274,,14,50,284,*66
$BDGSV,3,3,12,09,44,299,,08,14,156,,05,11,258,,13,08,322,*6C
$GNRMC,074155.799,A,3114.8770,N,12135.2463,E,0.30,4.94,250215,,,A*76
$PSRFEPE,074156.799,A,1.1,64.94,58.97,0.2,180.0*1B
$GNGGA,074156.799,3114.8950,N,12135.2442,E,1,07,1.1,190.7,M,8.3,M,,0000,1.8*7B
$GNGNS,074156.799,3114.8950,N,12135.2442,E,ANNA,07,1.1,190.7,8.3,,0000*5A
$GPGSA,A,3,25,32,14,12,,,,,,,,,2.1,1.1,1.8,1.2*39
$BDGSA,A,3,02,03,04,,,,,,,,,,2.1,1.1,1.8,1.2*2D
$GNRMC,074156.799,A,3114.8950,N,12135.2442,E,0.26,4.94,250215,,,A*7D
$PSRFEPE,074157.799,A,1.1,24.65,25.14,0.1,61.5*29
$GNGGA,074157.799,3114.8902,N,12135.2443,E,1,07,1.1,192.9,M,8.3,M,,0000,1.8*70
$GNGNS,074157.799,3114.8902,N,12135.2443,E,ANNA,07,1.1,192.9,8.3,,0000*51
$GPGSA,A,3,25,32,12,14,,,,,,,,,2.1,1.1,1.8,1.2*39
$BDGSA,A,3,02,03,04,,,,,,,,,,2.1,1.1,1.8,1.2*2D
$GNRMC,074157.799,A,3114.8902,N,12135.2443,E,0.32,4.94,250215,,,A*7F
$PSRFEPE,074158.799,A,1.1,19.32,19.35,0.1,180.0*1D
$GNGGA,074158.799,3114.8953,N,12135.2439,E,1,07,1.1,198.5,M,8.3,M,,0000,1.8*70
$GNGNS,074158.799,3114.8953,N,12135.2439,E,ANNA,07,1.1,198.5,8.3,,0000*51
$GPGSA,A,3,25,32,12,14,,,,,,,,,2.1,1.1,1.8,1.2*39
$BDGSA,A,3,02,03,04,,,,,,,,,,2.1,1.1,1.8,1.2*2D
$GNRMC,074158.799,A,3114.8953,N,12135.2439,E,0.25,4.94,250215,,,A*7F
$PSRFEPE,074159.799,A,1.1,14.86,15.59,0.2,180.0*1B
$GNGGA,074159.799,3114.8943,N,12135.2444,E,1,07,1.1,196.4,M,8.3,M,,0000,1.8*75
$GNGNS,074159.799,3114.8943,N,12135.2444,E,ANNA,07,1.1,196.4,8.3,,0000*54
$GPGSA,A,3,25,32,12,14,,,,,,,,,2.1,1.1,1.8,1.2*39
$BDGSA,A,3,02,03,04,,,,,,,,,,2.1,1.1,1.8,1.2*2D
$GNRMC,074159.799,A,3114.8943,N,12135.2444,E,0.23,4.94,250215,,,A*73
$PSRF151,3,1833,28693,0x7EFFD7FF*67
$PSRFEPE,074200.799,A,1.1,13.18,13.87,0.1,180.0*12
$GNGGA,074200.799,3114.8956,N,12135.2443,E,1,07,1.1,200.0,M,8.3,M,,0000,1.8*71
$GNGNS,074200.799,3114.8956,N,12135.2443,E,ANNA,07,1.1,200.0,8.3,,0000*50
$GPGSA,A,3,25,32,12,14,,,,,,,,,2.1,1.1,1.8,1.2*39
$BDGSA,A,3,02,03,04,,,,,,,,,,2.1,1.1,1.8,1.2*2D
$GPGSV,4,1,14,25,47,043,51,32,37,296,47,12,09,038,44,14,73,053,49*7E
$GPGSV,4,2,14,08,00,000,46,18,44,212,26,20,00,000,22,22,46,219,39*7C
$GPGSV,4,3,14,29,10,054,44,31,34,050,50,30,56,212,,15,40,319,*7F
$GPGSV,4,4,14,23,18,313,,27,17,063,*73
$BDGSV,3,1,12,02,33,240,35,03,51,201,37,04,35,123,42,01,42,130,45*6B
$BDGSV,3,2,12,10,64,323,,07,64,320,,06,55,274,,14,50,284,*66
$BDGSV,3,3,12,09,44,299,,08,14,156,,05,11,258,,13,08,322,*6C
$GNRMC,074200.799,A,3114.8956,N,12135.2443,E,0.25,4.94,250215,,,A*79
$PSRFEPE,074201.799,A,1.1,12.17,12.73,0.2,180.0*14
$GNGGA,074201.799,3114.8946,N,12135.2439,E,1,07,1.1,201.3,M,8.3,M,,0000,1.8*7E
$GNGNS,074201.799,3114.8946,N,12135.2439,E,ANNA,07,1.1,201.3,8.3,,0000*5F
$GPGSA,A,3,25,32,12,14,,,,,,,,,2.1,1.1,1.8,1.2*39
$BDGSA,A,3,02,03,04,,,,,,,,,,2.1,1.1,1.8,1.2*2D
$GNRMC,074201.799,A,3114.8946,N,12135.2439,E,0.24,4.94,250215,,,A*75
$PSRFEPE,074202.799,A,1.1,11.51,11.99,0.2,180.0*11
$GNGGA,074202.799,3114.8945,N,12135.2436,E,1,07,1.1,202.5,M,8.3,M,,0000,1.8*74
$GNGNS,074202.799,3114.8945,N,12135.2436,E,ANNA,07,1.1,202.5,8.3,,0000*55
$GPGSA,A,3,25,32,12,14,,,,,,,,,2.1,1.1,1.8,1.2*39
$BDGSA,A,3,02,03,04,,,,,,,,,,2.1,1.1,1.8,1.2*2D
$GNRMC,074202.799,A,3114.8945,N,12135.2436,E,0.15,4.94,250215,,,A*78
$PSRFEPE,074203.799,A,1.1,10.80,11.19,0.3,180.0*14
$GNGGA,074203.799,3114.8952,N,12135.2433,E,1,07,1.1,203.7,M,8.3,M,,0000,1.8*75
$GNGNS,074203.799,3114.8952,N,12135.2433,E,ANNA,07,1.1,203.7,8.3,,0000*54
$GPGSA,A,3,25,32,12,14,,,,,,,,,2.1,1.1,1.8,1.2*39
$BDGSA,A,3,02,03,04,,,,,,,,,,2.1,1.1,1.8,1.2*2D
$GNRMC,074203.799,A,3114.8952,N,12135.2433,E,0.35,4.94,250215,,,A*78
$PSRFEPE,074204.799,A,1.1,9.97,10.42,0.3,180.0*22
$GNGGA,074204.799,3114.8932,N,12135.2436,E,1,07,1.1,201.2,M,8.3,M,,0000,1.8*76
$GNGNS,074204.799,3114.8932,N,12135.2436,E,ANNA,07,1.1,201.2,8.3,,0000*57
$GPGSA,A,3,25,32,12,14,,,,,,,,,2.1,1.1,1.8,1.2*39
$BDGSA,A,3,02,03,04,,,,,,,,,,2.1,1.1,1.8,1.2*2D
$GNRMC,074204.799,A,3114.8932,N,12135.2436,E,0.19,4.94,250215,,,A*72
$PSRFEPE,074205.799,A,1.1,9.21,9.73,0.3,180.0*14
$GNGGA,074205.799,3114.8917,N,12135.2438,E,1,07,1.1,198.1,M,8.3,M,,0000,1.8*7E
$GNGNS,074205.799,3114.8917,N,12135.2438,E,ANNA,07,1.1,198.1,8.3,,0000*5F
$GPGSA,A,3,25,32,12,14,,,,,,,,,2.1,1.1,1.8,1.2*39
$BDGSA,A,3,02,03,04,,,,,,,,,,2.1,1.1,1.8,1.2*2D
$GPGSV,4,1,14,25,47,043,50,32,37,296,47,12,09,038,44,14,73,053,49*7F
$GPGSV,4,2,14,08,00,000,46,18,44,212,21,20,00,000,20,22,46,219,40*77
$GPGSV,4,3,14,29,10,054,44,31,34,050,49,30,56,212,,15,40,319,*77
$GPGSV,4,4,14,23,18,313,,27,17,063,*73
$BDGSV,3,1,12,02,33,240,35,03,51,201,37,04,35,123,42,01,42,130,45*6B
$BDGSV,3,2,12,10,64,323,,07,64,320,,06,55,274,,14,50,284,*66
$BDGSV,3,3,12,09,44,299,,08,14,156,,05,11,258,,13,08,322,*6C
$GNRMC,074205.799,A,3114.8917,N,12135.2438,E,0.11,4.94,250215,,,A*72
$PSRFEPE,074206.799,A,1.1,8.59,9.16,0.2,180.0*1B
$GNGGA,074206.799,3114.8890,N,12135.2441,E,1,07,1.1,194.5,M,8.3,M,,0000,1.8*75
$GNGNS,074206.799,3114.8890,N,12135.2441,E,ANNA,07,1.1,194.5,8.3,,0000*54
$GPGSA,A,3,25,32,12,14,,,,,,,,,2.1,1.1,1.8,1.2*39
$BDGSA,A,3,02,03,04,,,,,,,,,,2.1,1.1,1.8,1.2*2D
$GNRMC,074206.799,A,3114.8890,N,12135.2441,E,0.14,4.94,250215,,,A*74
$PSRFEPE,074207.799,A,1.1,8.31,8.82,0.2,180.0*18
$GNGGA,074207.799,3114.8877,N,12135.2443,E,1,07,1.1,195.4,M,8.3,M,,0000,1.8*7F
$GNGNS,074207.799,3114.8877,N,12135.2443,E,ANNA,07,1.1,195.4,8.3,,0000*5E
$GPGSA,A,3,25,32,12,14,,,,,,,,,2.1,1.1,1.8,1.2*39
$BDGSA,A,3,02,03,04,,,,,,,,,,2.1,1.1,1.8,1.2*2D
$GNRMC,074207.799,A,3114.8877,N,12135.2443,E,0.14,4.94,250215,,,A*7E
$PSRF151,3,1833,28694,0x7EFFD7FF*60
$PSRFEPE,074208.799,A,1.1,8.13,8.60,0.2,180.0*1B
$GNGGA,074208.799,3114.8882,N,12135.2443,E,1,07,1.1,198.0,M,8.3,M,,0000,1.8*73
$GNGNS,074208.799,3114.8882,N,12135.2443,E,ANNA,07,1.1,198.0,8.3,,0000*52
$GPGSA,A,3,25,32,12,14,,,,,,,,,2.1,1.1,1.8,1.2*39
$BDGSA,A,3,02,03,04,,,,,,,,,,2.1,1.1,1.8,1.2*2D
$GNRMC,074208.799,A,3114.8882,N,12135.2443,E,0.05,4.94,250215,,,A*7B
$PSRFEPE,074209.800,A,1.1,7.94,8.35,0.3,180.0*14
$GNGGA,074209.800,3114.8885,N,12135.2441,E,1,07,1.1,199.5,M,8.3,M,,0000,1.8*7C
$GNGNS,074209.800,3114.8885,N,12135.2441,E,ANNA,07,1.1,199.5,8.3,,0000*5D
$GPGSA,A,3,25,32,12,14,,,,,,,,,2.1,1.1,1.8,1.2*39
$BDGSA,A,3,02,03,04,,,,,,,,,,2.1,1.1,1.8,1.2*2D
$GNRMC,074209.800,A,3114.8885,N,12135.2441,E,0.16,4.94,250215,,,A*72
$PSRFEPE,074210.800,A,1.1,7.57,7.96,0.2,180.0*14
$GNGGA,074210.800,3114.8887,N,12135.2441,E,1,07,1.1,200.1,M,8.3,M,,0000,1.8*71
$GNGNS,074210.800,3114.8887,N,12135.2441,E,ANNA,07,1.1,200.1,8.3,,0000*50
$GPGSA,A,3,25,32,12,14,,,,,,,,,2.1,1.1,1.8,1.2*39
$BDGSA,A,3,02,03,04,,,,,,,,,,2.1,1.1,1.8,1.2*2D
$GPGSV,4,1,14,25,47,043,51,32,37,296,48,12,09,038,44,14,73,053,48*70
$GPGSV,4,2,14,08,00,000,45,18,44,212,25,20,00,000,22,22,46,219,40*72
$GPGSV,4,3,14,29,10,054,45,31,34,050,50,30,56,212,,15,40,319,*7E
$GPGSV,4,4,14,23,18,313,,27,17,063,*73
$BDGSV,3,1,12,02,33,240,35,03,51,201,37,04,35,123,42,01,42,130,45*6B
$BDGSV,3,2,12,10,64,323,40,07,64,320,,06,55,274,,14,50,284,*62
$BDGSV,3,3,12,09,44,299,,08,14,156,,05,11,258,,13,08,322,*6C
$GNRMC,074210.800,A,3114.8887,N,12135.2441,E,0.12,4.94,250215,,,A*7C
$PSRFEPE,074211.800,A,1.1,7.24,7.67,0.2,180.0*1F
$GNGGA,074211.800,3114.8903,N,12135.2442,E,1,07,1.1,202.1,M,8.3,M,,0000,1.8*7C
$GNGNS,074211.800,3114.8903,N,12135.2442,E,ANNA,07,1.1,202.1,8.3,,0000*5D
$GPGSA,A,3,25,32,12,14,,,,,,,,,2.1,1.1,1.8,1.2*39
$BDGSA,A,3,02,03,04,,,,,,,,,,2.1,1.1,1.8,1.2*2D
$GNRMC,074211.800,A,3114.8903,N,12135.2442,E,0.32,4.94,250215,,,A*71
$PSRFEPE,074212.800,A,1.1,6.94,7.39,0.3,180.0*1C
$GNGGA,074212.800,3114.8906,N,12135.2443,E,1,07,1.1,202.2,M,8.3,M,,0000,1.8*78
$GNGNS,074212.800,3114.8906,N,12135.2443,E,ANNA,07,1.1,202.2,8.3,,0000*59
$GPGSA,A,3,25,32,12,14,,,,,,,,,2.1,1.1,1.8,1.2*39
$BDGSA,A,3,02,03,04,,,,,,,,,,2.1,1.1,1.8,1.2*2D
$GNRMC,074212.800,A,3114.8906,N,12135.2443,E,0.10,4.94,250215,,,A*76
$PSRFEPE,074213.799,A,1.1,6.73,7.18,0.2,180.0*19
$GNGGA,074213.799,3114.8902,N,12135.2442,E,1,07,1.1,201.4,M,8.3,M,,0000,1.8*76
$GNGNS,074213.799,3114.8902,N,12135.2442,E,ANNA,07,1.1,201.4,8.3,,0000*57
$GPGSA,A,3,25,32,12,14,,,,,,,,,2.1,1.1,1.8,1.2*39
$BDGSA,A,3,02,03,04,,,,,,,,,,2.1,1.1,1.8,1.2*2D
$GNRMC,074213.799,A,3114.8902,N,12135.2442,E,0.20,4.94,250215,,,A*7E
$PSRFEPE,074214.799,A,1.1,6.68,7.10,0.2,180.0*1C
$GNGGA,074214.799,3114.8903,N,12135.2441,E,1,07,1.1,202.1,M,8.3,M,,0000,1.8*75
$GNGNS,074214.799,3114.8903,N,12135.2441,E,ANNA,07,1.1,202.1,8.3,,0000*54
$GPGSA,A,3,25,32,12,14,,,,,,,,,2.1,1.1,1.8,1.2*39
$BDGSA,A,3,02,03,04,,,,,,,,,,2.1,1.1,1.8,1.2*2D
$GNRMC,074214.799,A,3114.8903,N,12135.2441,E,0.11,4.94,250215,,,A*79
$PSRF151,3,1833,28695,0x7EFFD7FF*61
$PSRFEPE,074215.799,A,1.1,6.56,6.96,0.3,180.0*1E
$GNGGA,074215.799,3114.8907,N,12135.2441,E,1,07,1.1,203.6,M,8.3,M,,0000,1.8*76
$GNGNS,074215.799,3114.8907,N,12135.2441,E,ANNA,07,1.1,203.6,8.3,,0000*57
$GPGSA,A,3,25,32,12,14,,,,,,,,,2.1,1.1,1.8,1.2*39
$BDGSA,A,3,02,03,04,,,,,,,,,,2.1,1.1,1.8,1.2*2D
$GPGSV,4,1,13,25,47,043,51,32,37,296,47,12,09,038,45,14,73,053,48*79
$GPGSV,4,2,13,08,00,000,45,18,44,212,22,20,00,000,24,22,46,219,41*75
$GPGSV,4,3,13,29,10,054,45,31,34,050,51,30,56,212,,23,18,313,*7A
$GPGSV,4,4,13,27,17,063,*4D
$BDGSV,3,1,12,02,33,240,35,03,52,201,38,04,35,123,42,01,42,130,45*67
$BDGSV,3,2,12,10,64,323,41,07,64,320,,06,55,274,,14,50,284,*63
$BDGSV,3,3,12,09,44,299,,08,14,156,,05,11,258,,13,08,322,*6C
$GNRMC,074215.799,A,3114.8907,N,12135.2441,E,0.05,4.94,250215,,,A*79
$PSRFEPE,074216.799,A,1.1,6.36,6.73,0.2,180.0*11
$GNGGA,074216.799,3114.8910,N,12135.2442,E,1,07,1.1,204.1,M,8.3,M,,0000,1.8*70
$GNGNS,074216.799,3114.8910,N,12135.2442,E,ANNA,07,1.1,204.1,8.3,,0000*51
$GPGSA,A,3,25,32,12,14,,,,,,,,,2.1,1.1,1.8,1.2*39
$BDGSA,A,3,02,03,04,,,,,,,,,,2.1,1.1,1.8,1.2*2D
$GNRMC,074216.799,A,3114.8910,N,12135.2442,E,0.16,4.94,250215,,,A*7D
$PSRFEPE,074217.799,A,1.1,6.19,6.56,0.4,180.0*1C
$GNGGA,074217.799,3114.8910,N,12135.2442,E,1,07,1.1,203.7,M,8.3,M,,0000,1.8*70
$GNGNS,074217.799,3114.8910,N,12135.2442,E,ANNA,07,1.1,203.7,8.3,,0000*51
$GPGSA,A,3,25,32,12,14,,,,,,,,,2.1,1.1,1.8,1.2*39
$BDGSA,A,3,02,03,04,,,,,,,,,,2.1,1.1,1.8,1.2*2D
$GNRMC,074217.799,A,3114.8910,N,12135.2442,E,0.70,4.94,250215,,,A*7C
$PSRFEPE,074218.799,A,1.1,6.06,6.40,0.2,180.0*1C
$GNGGA,074218.799,3114.8910,N,12135.2441,E,1,07,1.1,203.7,M,8.3,M,,0000,1.8*7C
$GNGNS,074218.799,3114.8910,N,12135.2441,E,ANNA,07,1.1,203.7,8.3,,0000*5D
$GPGSA,A,3,25,32,12,14,,,,,,,,,2.1,1.1,1.8,1.2*39
$BDGSA,A,3,02,03,04,,,,,,,,,,2.1,1.1,1.8,1.2*2D
$GNRMC,074218.799,A,3114.8910,N,12135.2441,E,0.16,4.94,250215,,,A*70
$PSRFEPE,074219.799,A,1.1,5.97,6.30,0.3,180.0*10
$GNGGA,074219.799,3114.8916,N,12135.2442,E,1,07,1.1,205.1,M,8.3,M,,0000,1.8*78
$GNGNS,074219.799,3114.8916,N,12135.2442,E,ANNA,07,1.1,205.1,8.3,,0000*59
$GPGSA,A,3,25,32,12,14,,,,,,,,,2.1,1.1,1.8,1.2*39
$BDGSA,A,3,02,03,04,,,,,,,,,,2.1,1.1,1.8,1.2*2D
$GNRMC,074219.799,A,3114.8916,N,12135.2442,E,0.31,4.94,250215,,,A*71
$PSRFEPE,074221.799,A,1.1,5.88,6.16,0.4,180.0*16
$GNGGA,074221.799,3114.8925,N,12135.2440,E,1,07,1.1,205.9,M,8.3,M,,0000,1.8*79
$GNGNS,074221.799,3114.8925,N,12135.2440,E,ANNA,07,1.1,205.9,8.3,,0000*58
$GPGSA,A,3,25,32,12,14,,,,,,,,,2.1,1.1,1.8,1.2*39
$BDGSA,A,3,02,03,04,,,,,,,,,,2.1,1.1,1.8,1.2*2D
$GNRMC,074221.799,A,3114.8925,N,12135.2440,E,0.14,4.94,250215,,,A*7F
$PSRFEPE,074222.799,A,1.1,5.86,6.11,0.4,180.0*1C
$GNGGA,074222.799,3114.8925,N,12135.2440,E,1,07,1.1,205.9,M,8.3,M,,0000,1.8*7A
$GNGNS,074222.799,3114.8925,N,12135.2440,E,ANNA,07,1.1,205.9,8.3,,0000*5B
$GPGSA,A,3,25,32,12,14,,,,,,,,,2.1,1.1,1.8,1.2*39
$BDGSA,A,3,02,03,04,,,,,,,,,,2.1,1.1,1.8,1.2*2D
$GNRMC,074222.799,A,3114.8925,N,12135.2440,E,0.00,4.94,250215,,,A*79
$PSRF151,3,1833,28695,0x7EFFD7FF*61
$PSRFEPE,074223.799,A,1.1,5.73,5.97,0.4,180.0*1A
$GNGGA,074223.799,3114.8925,N,12135.2440,E,1,07,1.1,205.9,M,8.3,M,,0000,1.8*7B
$GNGNS,074223.799,3114.8925,N,12135.2440,E,ANNA,07,1.1,205.9,8.3,,0000*5A
$GPGSA,A,3,25,32,12,14,,,,,,,,,2.1,1.1,1.8,1.2*39
$BDGSA,A,3,02,03,04,,,,,,,,,,2.1,1.1,1.8,1.2*2D
$GNRMC,074223.799,A,3114.8925,N,12135.2440,E,0.00,4.94,250215,,,A*78
$PSRFEPE,074224.799,A,1.1,5.65,5.90,0.3,180.0*1A
$GNGGA,074224.799,3114.8925,N,12135.2440,E,1,07,1.1,205.9,M,8.3,M,,0000,1.8*7C
$GNGNS,074224.799,3114.8925,N,12135.2440,E,ANNA,07,1.1,205.9,8.3,,0000*5D
$GPGSA,A,3,25,32,12,14,,,,,,,,,2.1,1.1,1.8,1.2*39
$BDGSA,A,3,02,03,04,,,,,,,,,,2.1,1.1,1.8,1.2*2D
$GNRMC,074224.799,A,3114.8925,N,12135.2440,E,0.00,4.94,250215,,,A*7F
$PSRFEPE,074225.799,A,1.1,5.56,5.83,0.4,180.0*1E
$GNGGA,074225.799,3114.8925,N,12135.2440,E,1,07,1.1,205.9,M,8.3,M,,0000,1.8*7D
$GNGNS,074225.799,3114.8925,N,12135.2440,E,ANNA,07,1.1,205.9,8.3,,0000*5C
$GPGSA,A,3,25,32,12,14,,,,,,,,,2.1,1.1,1.8,1.2*39
$BDGSA,A,3,02,03,04,,,,,,,,,,2.1,1.1,1.8,1.2*2D
$GPGSV,4,1,13,25,47,043,50,32,37,296,47,12,09,038,46,14,73,053,49*7A
$GPGSV,4,2,13,08,00,000,45,20,00,000,25,22,46,219,40,29,10,054,45*77
$GPGSV,4,3,13,31,34,050,51,30,56,212,,18,44,212,,23,18,313,*78
$GPGSV,4,4,13,27,17,063,*4D
$BDGSV,3,1,12,02,33,240,35,03,52,201,37,04,35,123,42,01,42,130,45*68
$BDGSV,3,2,12,10,64,323,41,07,64,321,,06,55,274,,14,50,284,*62
$BDGSV,3,3,12,09,44,299,,08,15,156,,13,12,205,,05,11,258,*62
$GNRMC,074225.799,A,3114.8925,N,12135.2440,E,0.00,4.94,250215,,,A*7E
$PSRFEPE,074226.799,A,1.0,5.47,5.82,0.3,180.0*1A
$GNGGA,074226.799,3114.8925,N,12135.2440,E,1,08,1.0,205.9,M,8.3,M,,0000,1.7*7F
$GNGNS,074226.799,3114.8925,N,12135.2440,E,ANNA,08,1.0,205.9,8.3,,0000*51
$GPGSA,A,3,22,25,32,12,14,,,,,,,,2.0,1.0,1.7,1.1*35
$BDGSA,A,3,02,03,04,,,,,,,,,,2.0,1.0,1.7,1.1*21
$GNRMC,074226.799,A,3114.8925,N,12135.2440,E,0.00,4.94,250215,,,A*7D
$PSRFEPE,074227.799,A,1.0,5.31,5.71,0.3,180.0*16
$GNGGA,074227.799,3114.8925,N,12135.2440,E,1,08,1.0,205.9,M,8.3,M,,0000,1.7*7E
$GNGNS,074227.799,3114.8925,N,12135.2440,E,ANNA,08,1.0,205.9,8.3,,0000*50
$GPGSA,A,3,22,25,32,12,14,,,,,,,,2.0,1.0,1.7,1.1*35
$BDGSA,A,3,02,03,04,,,,,,,,,,2.0,1.0,1.7,1.1*21
$GNRMC,074227.799,A,3114.8925,N,12135.2440,E,0.00,4.94,250215,,,A*7C
$PSRFEPE,074228.799,A,1.0,5.03,5.56,0.3,180.0*1D
$GNGGA,074228.799,3114.8925,N,12135.2440,E,1,08,1.0,205.9,M,8.3,M,,0000,1.7*71
$GNGNS,074228.799,3114.8925,N,12135.2440,E,ANNA,08,1.0,205.9,8.3,,0000*5F
$GPGSA,A,3,22,25,32,12,14,,,,,,,,2.0,1.0,1.7,1.1*35
$BDGSA,A,3,02,03,04,,,,,,,,,,2.0,1.0,1.7,1.1*21
$GNRMC,074228.799,A,3114.8925,N,12135.2440,E,0.00,4.94,250215,,,A*73
$PSRFEPE,074229.799,A,1.0,4.72,5.36,0.3,180.0*1D
$GNGGA,074229.799,3114.8925,N,12135.2440,E,1,08,1.0,205.9,M,8.3,M,,0000,1.7*70
$GNGNS,074229.799,3114.8925,N,12135.2440,E,ANNA,08,1.0,205.9,8.3,,0000*5E
$GPGSA,A,3,22,25,32,12,14,,,,,,,,2.0,1.0,1.7,1.1*35
$BDGSA,A,3,02,03,04,,,,,,,,,,2.0,1.0,1.7,1.1*21
$GNRMC,074229.799,A,3114.8925,N,12135.2440,E,0.00,4.94,250215,,,A*72
$PSRFEPE,074230.799,A,1.0,4.50,5.24,0.3,180.0*16
$GNGGA,074230.799,3114.8925,N,12135.2440,E,1,08,1.0,205.9,M,8.3,M,,0000,1.7*78
$GNGNS,074230.799,3114.8925,N,12135.2440,E,ANNA,08,1.0,205.9,8.3,,0000*56
$GPGSA,A,3,22,25,32,12,14,,,,,,,,2.0,1.0,1.7,1.1*35
$BDGSA,A,3,02,03,04,,,,,,,,,,2.0,1.0,1.7,1.1*21
$GPGSV,4,1,13,22,34,194,40,25,47,043,50,32,37,296,47,12,09,038,46*7F
$GPGSV,4,2,13,14,73,054,48,08,00,000,44,20,00,000,23,29,10,054,46*73
$GPGSV,4,3,13,31,34,050,49,30,56,212,,18,44,212,,23,18,313,*71
$GPGSV,4,4,13,27,17,063,*4D
$BDGSV,3,1,12,02,33,240,35,03,52,201,37,04,35,123,42,01,42,130,45*68
$BDGSV,3,2,12,10,64,323,41,07,64,321,,06,55,274,,14,50,284,*62
$BDGSV,3,3,12,09,44,299,,08,15,156,,13,12,205,,05,11,258,*62
$GNRMC,074230.799,A,3114.8925,N,12135.2440,E,0.00,4.94,250215,,,A*7A
$PSRF151,3,1833,28696,0x7EDFD7FF*60
$PSRFEPE,074231.799,A,1.0,4.31,5.14,0.3,180.0*13
$GNGGA,074231.799,3114.8925,N,12135.2440,E,1,08,1.0,205.9,M,8.3,M,,0000,1.7*79
$GNGNS,074231.799,3114.8925,N,12135.2440,E,ANNA,08,1.0,205.9,8.3,,0000*57
$GPGSA,A,3,22,25,32,12,14,,,,,,,,2.0,1.0,1.7,1.1*35
$BDGSA,A,3,02,03,04,,,,,,,,,,2.0,1.0,1.7,1.1*21
$GNRMC,074231.799,A,3114.8925,N,12135.2440,E,0.00,4.94,250215,,,A*7B
$PSRFEPE,074232.799,A,0.9,3.73,4.42,0.1,180.0*19
$GNGGA,074232.799,3114.8925,N,12135.2440,E,1,10,0.9,205.9,M,8.3,M,,0000,1.6*7A
$GNGNS,074232.799,3114.8925,N,12135.2440,E,ANNA,10,0.9,205.9,8.3,,0000*55
$GPGSA,A,3,22,25,32,12,29,14,31,,,,,,1.8,0.9,1.6,1.1*3E
$BDGSA,A,3,02,03,04,,,,,,,,,,1.8,0.9,1.6,1.1*23
$GNRMC,074232.799,A,3114.8925,N,12135.2440,E,0.00,4.94,250215,,,A*78
$PSRFEPE,074233.799,A,0.9,3.66,4.42,0.2,180.0*1F
$GNGGA,074233.799,3114.8925,N,12135.2440,E,1,10,0.9,205.9,M,8.3,M,,0000,1.6*7B
$GNGNS,074233.799,3114.8925,N,12135.2440,E,ANNA,10,0.9,205.9,8.3,,0000*54
$GPGSA,A,3,22,25,32,12,29,14,31,,,,,,1.8,0.9,1.6,1.1*3E
$BDGSA,A,3,02,03,04,,,,,,,,,,1.8,0.9,1.6,1.1*23
$GNRMC,074233.799,A,3114.8925,N,12135.2440,E,0.00,4.94,250215,,,A*79
$PSRFEPE,074234.799,A,0.9,3.49,4.29,0.2,180.0*18
$GNGGA,074234.799,3114.8925,N,12135.2440,E,1,10,0.9,205.9,M,8.3,M,,0000,1.6*7C
$GNGNS,074234.799,3114.8925,N,12135.2440,E,ANNA,10,0.9,205.9,8.3,,0000*53
$GPGSA,A,3,22,25,32,12,29,14,31,,,,,,1.8,0.9,1.6,1.1*3E
$BDGSA,A,3,02,03,04,,,,,,,,,,1.8,0.9,1.6,1.1*23
$GNRMC,074234.799,A,3114.8925,N,12135.2440,E,0.00,4.94,250215,,,A*7E
$PSRFEPE,074235.799,A,0.9,3.22,4.02,0.2,180.0*1D
$GNGGA,074235.799,3114.8925,N,12135.2440,E,1,10,0.9,205.9,M,8.3,M,,0000,1.6*7D
$GNGNS,074235.799,3114.8925,N,12135.2440,E,ANNA,10,0.9,205.9,8.3,,0000*52
$GPGSA,A,3,22,25,32,12,29,14,31,,,,,,1.8,0.9,1.6,1.1*3E
$BDGSA,A,3,02,03,04,,,,,,,,,,1.8,0.9,1.6,1.1*23
$GPGSV,4,1,13,22,34,194,39,25,46,043,50,32,37,296,47,12,09,038,45*73
$GPGSV,4,2,13,29,25,103,46,14,73,054,49,31,53,310,50,08,00,000,44*77
$GPGSV,4,3,13,20,00,000,25,30,56,212,,18,44,212,,23,18,313,*79
$GPGSV,4,4,13,27,17,063,*4D
$BDGSV,3,1,12,02,33,240,35,03,52,201,38,04,35,123,42,01,42,130,45*67
$BDGSV,3,2,12,07,64,321,44,10,64,323,41,06,55,274,,14,50,284,*62
$BDGSV,3,3,12,09,44,299,,08,15,156,,13,12,205,,05,11,258,*62
$GNRMC,074235.799,A,3114.8925,N,12135.2440,E,0.00,4.94,250215,,,A*7F
$PSRFEPE,074236.799,A,0.9,3.09,3.92,0.2,180.0*19
$GNGGA,074236.799,3114.8925,N,12135.2440,E,1,10,0.9,205.9,M,8.3,M,,0000,1.6*7E
$GNGNS,074236.799,3114.8925,N,12135.2440,E,ANNA,10,0.9,205.9,8.3,,0000*51
$GPGSA,A,3,22,25,32,12,29,14,31,,,,,,1.8,0.9,1.6,1.1*3E
$BDGSA,A,3,02,03,04,,,,,,,,,,1.8,0.9,1.6,1.1*23
$GNRMC,074236.799,A,3114.8925,N,12135.2440,E,0.00,4.94,250215,,,A*7C
$PSRFEPE,074237.799,A,0.9,3.13,3.98,0.2,180.0*19
$GNGGA,074237.799,3114.8925,N,12135.2440,E,1,10,0.9,205.9,M,8.3,M,,0000,1.6*7F
$GNGNS,074237.799,3114.8925,N,12135.2440,E,ANNA,10,0.9,205.9,8.3,,0000*50
$GPGSA,A,3,22,25,32,12,29,14,31,,,,,,1.8,0.9,1.6,1.1*3E
$BDGSA,A,3,02,03,04,,,,,,,,,,1.8,0.9,1.6,1.1*23
$GNRMC,074237.799,A,3114.8925,N,12135.2440,E,0.00,4.94,250215,,,A*7D
$PSRFEPE,074238.799,A,0.9,2.91,3.75,0.2,180.0*1E
$GNGGA,074238.799,3114.8925,N,12135.2440,E,1,10,0.9,205.9,M,8.3,M,,0000,1.6*70
$GNGNS,074238.799,3114.8925,N,12135.2440,E,ANNA,10,0.9,205.9,8.3,,0000*5F
$GPGSA,A,3,22,25,32,12,29,14,31,,,,,,1.8,0.9,1.6,1.0*3F
$BDGSA,A,3,02,03,04,,,,,,,,,,1.8,0.9,1.6,1.0*22
$GNRMC,074238.799,A,3114.8925,N,12135.2440,E,0.00,4.94,250215,,,A*72
$PSRF151,3,1833,28697,0x2EDFD77F*15
$PSRFEPE,074239.799,A,0.9,2.83,3.68,0.2,180.0*10
$GNGGA,074239.799,3114.8925,N,12135.2440,E,1,10,0.9,205.9,M,8.3,M,,0000,1.6*71
$GNGNS,074239.799,3114.8925,N,12135.2440,E,ANNA,10,0.9,205.9,8.3,,0000*5E
$GPGSA,A,3,22,25,32,12,29,14,31,,,,,,1.8,0.9,1.6,1.0*3F
$BDGSA,A,3,02,03,04,,,,,,,,,,1.8,0.9,1.6,1.0*22
$GNRMC,074239.799,A,3114.8925,N,12135.2440,E,0.00,4.94,250215,,,A*73
$PSRFEPE,074240.799,A,0.8,2.92,3.84,0.2,180.0*1D
$GNGGA,074240.799,3114.8925,N,12135.2440,E,1,11,0.8,205.9,M,8.3,M,,0000,1.6*7F
$GNGNS,074240.799,3114.8925,N,12135.2440,E,ANNA,11,0.8,205.9,8.3,,0000*50
$GPGSA,A,3,22,25,32,12,29,14,31,,,,,,1.8,0.8,1.6,1.0*3E
$BDGSA,A,3,02,03,04,10,,,,,,,,,1.8,0.8,1.6,1.0*22
$GPGSV,4,1,13,22,34,194,38,25,46,043,49,32,37,296,47,12,09,038,45*7A
$GPGSV,4,2,13,29,25,103,47,14,73,054,49,31,53,310,50,08,00,000,44*76
$GPGSV,4,3,13,18,44,212,33,20,00,000,23,30,56,212,,23,18,313,*7F
$GPGSV,4,4,13,27,17,063,*4D
$BDGSV,3,1,12,02,33,240,35,03,52,201,37,04,35,123,42,10,50,288,41*6F
$BDGSV,3,2,12,01,42,130,45,07,64,321,44,06,55,274,,14,50,284,*62
$BDGSV,3,3,12,09,44,299,,08,15,156,,13,12,205,,05,11,258,*62
$GNRMC,074240.799,A,3114.8925,N,12135.2440,E,0.00,4.94,250215,,,A*7D
$PSRFEPE,074241.799,A,0.8,2.73,3.62,0.2,180.0*1B
$GNGGA,074241.799,3114.8925,N,12135.2440,E,1,11,0.8,205.9,M,8.3,M,,0000,1.6*7E
$GNGNS,074241.799,3114.8925,N,12135.2440,E,ANNA,11,0.8,205.9,8.3,,0000*51
$GPGSA,A,3,22,25,32,12,29,14,31,,,,,,1.8,0.8,1.6,1.0*3E
$BDGSA,A,3,02,03,04,10,,,,,,,,,1.8,0.8,1.6,1.0*22
$GNRMC,074241.799,A,3114.8925,N,12135.2440,E,0.00,4.94,250215,,,A*7C
$PSRFEPE,074242.799,A,0.8,2.79,3.74,0.2,180.0*15
$GNGGA,074242.799,3114.8925,N,12135.2440,E,1,11,0.8,205.9,M,8.3,M,,0000,1.6*7D
$GNGNS,074242.799,3114.8925,N,12135.2440,E,ANNA,11,0.8,205.9,8.3,,0000*52
$GPGSA,A,3,22,25,32,12,29,14,31,,,,,,1.8,0.8,1.6,1.0*3E
$BDGSA,A,3,02,03,04,10,,,,,,,,,1.8,0.8,1.6,1.0*22
$GNRMC,074242.799,A,3114.8925,N,12135.2440,E,0.00,4.94,250215,,,A*7F
$PSRFEPE,074243.799,A,0.8,2.73,3.66,0.1,180.0*1E
$GNGGA,074243.799,3114.8925,N,12135.2440,E,1,11,0.8,205.9,M,8.3,M,,0000,1.6*7C
$GNGNS,074243.799,3114.8925,N,12135.2440,E,ANNA,11,0.8,205.9,8.3,,0000*53
$GPGSA,A,3,22,25,32,12,29,14,31,,,,,,1.8,0.8,1.6,1.0*3E
$BDGSA,A,3,02,03,04,10,,,,,,,,,1.8,0.8,1.6,1.0*22
$GNRMC,074243.799,A,3114.8925,N,12135.2440,E,0.00,4.94,250215,,,A*7E
$PSRFEPE,074244.799,A,0.8,2.56,3.46,0.2,180.0*1F
$GNGGA,074244.799,3114.8925,N,12135.2440,E,1,11,0.8,205.9,M,8.3,M,,0000,1.6*7B
$GNGNS,074244.799,3114.8925,N,12135.2440,E,ANNA,11,0.8,205.9,8.3,,0000*54
$GPGSA,A,3,22,25,32,12,29,14,31,,,,,,1.8,0.8,1.6,1.0*3E
$BDGSA,A,3,02,03,04,10,,,,,,,,,1.8,0.8,1.6,1.0*22
$GNRMC,074244.799,A,3114.8925,N,12135.2440,E,0.00,4.94,250215,,,A*79
$PSRFEPE,074245.799,A,0.8,2.51,3.40,0.1,180.0*1C
$GNGGA,074245.799,3114.8925,N,12135.2440,E,1,11,0.8,205.9,M,8.3,M,,0000,1.6*7A
$GNGNS,074245.799,3114.8925,N,12135.2440,E,ANNA,11,0.8,205.9,8.3,,0000*55
$GPGSA,A,3,22,25,32,12,29,14,31,,,,,,1.8,0.8,1.6,1.0*3E
$BDGSA,A,3,02,03,04,10,,,,,,,,,1.8,0.8,1.6,1.0*22
$GPGSV,4,1,14,22,34,194,39,25,46,043,50,32,37,296,46,12,09,038,45*75
$GPGSV,4,2,14,29,25,103,46,14,73,054,48,31,53,310,51,08,00,000,44*70
$GPGSV,4,3,14,18,44,212,33,20,00,000,25,30,56,213,,23,18,313,*7F
$GPGSV,4,4,14,27,17,063,,16,04,213,*79
$BDGSV,3,1,12,02,33,240,35,03,52,201,38,04,35,123,42,10,50,288,41*60
$BDGSV,3,2,12,01,42,130,45,07,64,321,44,06,55,274,,14,50,284,*62
$BDGSV,3,3,12,09,44,299,,08,15,156,,13,12,205,,05,11,258,*62
$GNRMC,074245.799,A,3114.8925,N,12135.2440,E,0.00,4.94,250215,,,A*78
$PSRFEPE,074246.799,A,0.8,2.56,3.48,0.2,180.0*13
$GNGGA,074246.799,3114.8925,N,12135.2440,E,1,11,0.8,205.9,M,8.3,M,,0000,1.6*79
$GNGNS,074246.799,3114.8925,N,12135.2440,E,ANNA,11,0.8,205.9,8.3,,0000*56
$GPGSA,A,3,22,25,32,12,29,14,31,,,,,,1.8,0.8,1.6,1.0*3E
$BDGSA,A,3,02,03,04,10,,,,,,,,,1.8,0.8,1.6,1.0*22
$GNRMC,074246.799,A,3114.8925,N,12135.2440,E,0.00,4.94,250215,,,A*7B
$PSRF151,3,1833,28698,0x2EDFD77F*1A
$PSRFEPE,074247.799,A,0.8,2.51,3.43,0.2,180.0*1E
$GNGGA,074247.799,3114.8920,N,12135.2440,E,1,11,0.8,205.4,M,8.3,M,,0000,1.6*70
$GNGNS,074247.799,3114.8920,N,12135.2440,E,ANNA,11,0.8,205.4,8.3,,0000*5F
$GPGSA,A,3,22,25,32,12,29,14,31,,,,,,1.8,0.8,1.6,1.0*3E
$BDGSA,A,3,02,03,04,10,,,,,,,,,1.8,0.8,1.6,1.0*22
$GNRMC,074247.799,A,3114.8920,N,12135.2440,E,0.14,4.94,250215,,,A*7A
$PSRFEPE,074248.799,A,0.8,2.37,3.25,0.2,180.0*11
$GNGGA,074248.799,3114.8920,N,12135.2440,E,1,11,0.8,205.4,M,8.3,M,,0000,1.6*7F
$GNGNS,074248.799,3114.8920,N,12135.2440,E,ANNA,11,0.8,205.4,8.3,,0000*50
$GPGSA,A,3,22,25,32,12,29,14,31,,,,,,1.8,0.8,1.6,1.0*3E
$BDGSA,A,3,02,03,04,10,,,,,,,,,1.8,0.8,1.6,1.0*22
$GNRMC,074248.799,A,3114.8920,N,12135.2440,E,0.00,4.94,250215,,,A*70
$PSRFEPE,074249.799,A,0.8,2.33,3.21,0.2,180.0*10
$GNGGA,074249.799,3114.8920,N,12135.2440,E,1,11,0.8,205.4,M,8.3,M,,0000,1.6*7E
$GNGNS,074249.799,3114.8920,N,12135.2440,E,ANNA,11,0.8,205.4,8.3,,0000*51
$GPGSA,A,3,22,25,32,12,29,14,31,,,,,,1.8,0.8,1.6,1.0*3E
$BDGSA,A,3,02,03,04,10,,,,,,,,,1.8,0.8,1.6,1.0*22
$GNRMC,074249.799,A,3114.8920,N,12135.2440,E,0.00,4.94,250215,,,A*71
$PSRFEPE,074250.799,A,0.8,2.31,3.20,0.3,180.0*1A
$GNGGA,074250.799,3114.8920,N,12135.2440,E,1,11,0.8,205.4,M,8.3,M,,0000,1.6*76
$GNGNS,074250.799,3114.8920,N,12135.2440,E,ANNA,11,0.8,205.4,8.3,,0000*59
$GPGSA,A,3,22,25,32,12,29,14,31,,,,,,1.8,0.8,1.6,1.0*3E
$BDGSA,A,3,02,03,04,10,,,,,,,,,1.8,0.8,1.6,1.0*22
$GPGSV,4,1,13,22,34,194,40,25,46,043,50,32,37,296,46,12,09,038,45*7C
$GPGSV,4,2,13,29,25,103,46,14,73,054,49,31,53,310,51,08,00,000,44*76
$GPGSV,4,3,13,18,44,212,33,30,56,213,,23,18,313,,27,17,063,*7B
$GPGSV,4,4,13,16,04,213,*48
$BDGSV,3,1,12,02,33,240,35,03,52,201,37,04,35,123,42,10,50,288,41*6F
$BDGSV,3,2,12,01,42,130,45,07,64,321,44,06,55,274,,14,50,284,*62
$BDGSV,3,3,12,09,44,299,,08,15,156,,13,12,205,,05,11,258,*62
$GNRMC,074250.799,A,3114.8920,N,12135.2440,E,0.00,4.94,250215,,,A*79
$PSRFEPE,074251.799,A,0.8,2.28,3.19,0.3,180.0*19
$GNGGA,074251.799,3114.8920,N,12135.2440,E,1,11,0.8,205.4,M,8.3,M,,0000,1.6*77
$GNGNS,074251.799,3114.8920,N,12135.2440,E,ANNA,11,0.8,205.4,8.3,,0000*58
$GPGSA,A,3,22,25,32,12,29,14,31,,,,,,1.8,0.8,1.6,1.0*3E
$BDGSA,A,3,02,03,04,10,,,,,,,,,1.8,0.8,1.6,1.0*22
$GNRMC,074251.799,A,3114.8920,N,12135.2440,E,0.00,4.94,250215,,,A*78
$PSRFEPE,074252.799,A,0.8,2.29,3.22,0.3,180.0*13
$GNGGA,074252.799,3114.8920,N,12135.2440,E,1,11,0.8,205.4,M,8.3,M,,0000,1.6*74
$GNGNS,074252.799,3114.8920,N,12135.2440,E,ANNA,11,0.8,205.4,8.3,,0000*5B
$GPGSA,A,3,22,25,32,12,29,14,31,,,,,,1.8,0.8,1.6,1.0*3E
$BDGSA,A,3,02,03,04,10,,,,,,,,,1.8,0.8,1.6,1.0*22
$GNRMC,074252.799,A,3114.8920,N,12135.2440,E,0.00,4.94,250215,,,A*7B
$PSRFEPE,074253.799,A,0.8,2.28,3.25,0.4,180.0*13
$GNGGA,074253.799,3114.8920,N,12135.2440,E,1,11,0.8,205.4,M,8.3,M,,0000,1.6*75
$GNGNS,074253.799,3114.8920,N,12135.2440,E,ANNA,11,0.8,205.4,8.3,,0000*5A
$GPGSA,A,3,22,25,32,12,29,14,31,,,,,,1.8,0.8,1.6,1.0*3E
$BDGSA,A,3,02,03,04,10,,,,,,,,,1.8,0.8,1.6,1.0*22
$GNRMC,074253.799,A,3114.8920,N,12135.2440,E,0.00,4.94,250215,,,A*7A
$PSRFEPE,074254.799,A,0.8,2.37,3.38,0.3,180.0*11
$GNGGA,074254.799,3114.8920,N,12135.2440,E,1,11,0.8,205.4,M,8.3,M,,0000,1.6*72
$GNGNS,074254.799,3114.8920,N,12135.2440,E,ANNA,11,0.8,205.4,8.3,,0000*5D
$GPGSA,A,3,22,25,32,12,29,14,31,,,,,,1.8,0.8,1.6,1.0*3E
$BDGSA,A,3,02,03,04,10,,,,,,,,,1.8,0.8,1.6,1.0*22
$GNRMC,074254.799,A,3114.8920,N,12135.2440,E,0.00,4.94,250215,,,A*7D
$PSRF151,3,1833,28699,0x2EDFD77F*1B
$PSRFEPE,074255.799,A,0.8,2.24,3.21,0.2,180.0*1B
$GNGGA,074255.799,3114.8920,N,12135.2440,E,1,11,0.8,205.4,M,8.3,M,,0000,1.6*73
$GNGNS,074255.799,3114.8920,N,12135.2440,E,ANNA,11,0.8,205.4,8.3,,0000*5C
$GPGSA,A,3,22,25,32,12,29,14,31,,,,,,1.8,0.8,1.6,1.0*3E
$BDGSA,A,3,02,03,04,10,,,,,,,,,1.8,0.8,1.6,1.0*22
$GPGSV,4,1,13,22,34,194,39,25,46,043,50,32,37,296,47,12,09,038,45*73
$GPGSV,4,2,13,29,25,103,47,14,73,054,48,31,53,310,51,08,00,000,44*76
$GPGSV,4,3,13,18,44,212,33,30,56,213,,23,18,313,,27,17,063,*7B
$GPGSV,4,4,13,16,04,213,*48
$BDGSV,3,1,12,02,33,240,35,03,52,201,37,04,35,123,42,10,50,288,41*6F
$BDGSV,3,2,12,01,42,130,45,07,64,321,44,06,55,274,,09,44,299,*67
$BDGSV,3,3,12,14,44,302,,08,15,156,,13,12,205,,05,11,258,*6D
$GNRMC,074255.799,A,3114.8920,N,12135.2440,E,0.00,4.94,250215,,,A*7C
$PSRFEPE,074256.799,A,0.8,2.22,3.21,0.2,180.0*1E
$GNGGA,074256.799,3114.8920,N,12135.2440,E,1,11,0.8,205.4,M,8.3,M,,0000,1.6*70
$GNGNS,074256.799,3114.8920,N,12135.2440,E,ANNA,11,0.8,205.4,8.3,,0000*5F
$GPGSA,A,3,22,25,32,12,29,14,31,,,,,,1.8,0.8,1.6,1.0*3E
$BDGSA,A,3,02,03,04,10,,,,,,,,,1.8,0.8,1.6,1.0*22
$GNRMC,074256.799,A,3114.8920,N,12135.2440,E,0.00,4.94,250215,,,A*7F
$PSRFEPE,074257.799,A,0.8,2.29,3.32,0.2,180.0*16
$GNGGA,074257.799,3114.8920,N,12135.2440,E,1,11,0.8,205.4,M,8.3,M,,0000,1.6*71
$GNGNS,074257.799,3114.8920,N,12135.2440,E,ANNA,11,0.8,205.4,8.3,,0000*5E
$GPGSA,A,3,22,25,32,12,29,14,31,,,,,,1.8,0.8,1.6,1.0*3E
$BDGSA,A,3,02,03,04,10,,,,,,,,,1.8,0.8,1.6,1.0*22
$GNRMC,074257.799,A,3114.8920,N,12135.2440,E,0.00,4.94,250215,,,A*7E
$PSRFEPE,074258.799,A,0.8,2.26,3.31,0.2,180.0*15
$GNGGA,074258.799,3114.8920,N,12135.2440,E,1,11,0.8,205.4,M,8.3,M,,0000,1.6*7E
$GNGNS,074258.799,3114.8920,N,12135.2440,E,ANNA,11,0.8,205.4,8.3,,0000*51
$GPGSA,A,3,22,25,32,12,29,14,31,,,,,,1.8,0.8,1.6,1.0*3E
$BDGSA,A,3,02,03,04,10,,,,,,,,,1.8,0.8,1.6,1.0*22
$GNRMC,074258.799,A,3114.8920,N,12135.2440,E,0.00,4.94,250215,,,A*71
$PSRFEPE,074259.799,A,0.8,2.24,3.33,0.3,180.0*15
$GNGGA,074259.799,3114.8920,N,12135.2440,E,1,11,0.8,205.4,M,8.3,M,,0000,1.6*7F
$GNGNS,074259.799,3114.8920,N,12135.2440,E,ANNA,11,0.8,205.4,8.3,,0000*50
$GPGSA,A,3,22,25,32,12,29,14,31,,,,,,1.8,0.8,1.6,1.0*3E
$BDGSA,A,3,02,03,04,10,,,,,,,,,1.8,0.8,1.6,1.0*22
$GNRMC,074259.799,A,3114.8920,N,12135.2440,E,0.00,4.94,250215,,,A*70
$PSRFEPE,074300.799,A,0.8,2.23,3.33,0.2,180.0*1E
$GNGGA,074300.799,3114.8920,N,12135.2440,E,1,11,0.8,205.4,M,8.3,M,,0000,1.6*72
$GNGNS,074300.799,3114.8920,N,12135.2440,E,ANNA,11,0.8,205.4,8.3,,0000*5D
$GPGSA,A,3,22,25,32,12,29,14,31,,,,,,1.8,0.8,1.6,1.0*3E
$BDGSA,A,3,02,03,04,10,,,,,,,,,1.8,0.8,1.6,1.0*22
$GPGSV,4,1,13,22,34,194,40,25,46,043,49,32,37,296,45,12,09,038,44*76
$GPGSV,4,2,13,29,25,103,45,14,73,054,49,31,53,310,50,08,00,000,44*74
$GPGSV,4,3,13,18,44,212,34,30,56,213,,23,18,313,,27,17,063,*7C
$GPGSV,4,4,13,16,04,213,*48
$BDGSV,3,1,12,02,33,240,35,03,52,201,37,04,35,123,42,10,50,288,41*6F
$BDGSV,3,2,12,01,42,130,45,07,64,321,44,06,55,274,,09,44,299,*67
$BDGSV,3,3,12,14,44,302,,08,15,156,,13,12,205,,05,11,258,*6D
$GNRMC,074300.799,A,3114.8920,N,12135.2440,E,0.00,4.94,250215,,,A*7D
$PSRFEPE,074301.799,A,0.8,2.21,3.24,0.1,180.0*18
$GNGGA,074301.799,3114.8920,N,12135.2440,E,1,11,0.8,205.4,M,8.3,M,,0000,1.6*73
$GNGNS,074301.799,3114.8920,N,12135.2440,E,ANNA,11,0.8,205.4,8.3,,0000*5C
$GPGSA,A,3,22,25,32,12,29,14,31,,,,,,1.8,0.8,1.6,1.0*3E
$BDGSA,A,3,02,03,04,10,,,,,,,,,1.8,0.8,1.6,1.0*22
$GNRMC,074301.799,A,3114.8920,N,12135.2440,E,0.00,4.94,250215,,,A*7C
$PSRFEPE,074302.799,A,0.8,2.20,3.21,0.1,180.0*1F
$GNGGA,074302.799,3114.8920,N,12135.2440,E,1,11,0.8,205.4,M,8.3,M,,0000,1.6*70
$GNGNS,074302.799,3114.8920,N,12135.2440,E,ANNA,11,0.8,205.4,8.3,,0000*5F
$GPGSA,A,3,22,25,32,12,29,14,31,,,,,,1.8,0.8,1.6,1.0*3E
$BDGSA,A,3,02,03,04,10,,,,,,,,,1.8,0.8,1.6,1.0*22
$GNRMC,074302.799,A,3114.8920,N,12135.2440,E,0.00,4.94,250215,,,A*7F
$PSRF151,3,1833,28699,0x2EDFD77F*1B
$PSRFEPE,074303.799,A,0.8,2.09,3.07,0.1,180.0*11
$GNGGA,074303.799,3114.8920,N,12135.2440,E,1,11,0.8,205.4,M,8.3,M,,0000,1.6*71
$GNGNS,074303.799,3114.8920,N,12135.2440,E,ANNA,11,0.8,205.4,8.3,,0000*5E
$GPGSA,A,3,22,25,32,12,29,14,31,,,,,,1.8,0.8,1.6,1.0*3E
$BDGSA,A,3,02,03,04,10,,,,,,,,,1.8,0.8,1.6,1.0*22
$GNRMC,074303.799,A,3114.8920,N,12135.2440,E,0.00,4.94,250215,,,A*7E
$PSRFEPE,074304.799,A,0.8,2.11,3.10,0.1,180.0*19
$GNGGA,074304.799,3114.8920,N,12135.2440,E,1,12,0.8,205.4,M,8.3,M,,0000,1.5*76
$GNGNS,074304.799,3114.8920,N,12135.2440,E,ANNA,12,0.8,205.4,8.3,,0000*5A
$GPGSA,A,3,22,25,32,12,29,14,31,,,,,,1.7,0.8,1.5,1.0*32
$BDGSA,A,3,02,03,04,10,07,,,,,,,,1.7,0.8,1.5,1.0*29
$GNRMC,074304.799,A,3114.8920,N,12135.2440,E,0.00,4.94,250215,,,A*79
$PSRFEPE,074305.799,A,0.8,2.08,3.07,0.2,180.0*15
$GNGGA,074305.799,3114.8920,N,12135.2440,E,1,12,0.8,205.4,M,8.3,M,,0000,1.5*77
$GNGNS,074305.799,3114.8920,N,12135.2440,E,ANNA,12,0.8,205.4,8.3,,0000*5B
$GPGSA,A,3,22,25,32,12,29,14,31,,,,,,1.7,0.8,1.5,1.0*32
$BDGSA,A,3,02,03,04,10,07,,,,,,,,1.7,0.8,1.5,1.0*29
$GPGSV,4,1,13,22,34,194,40,25,46,043,50,32,37,296,47,12,09,038,45*7D
$GPGSV,4,2,13,29,25,103,46,14,73,054,49,31,53,310,51,08,00,000,45*77
$GPGSV,4,3,13,18,44,212,33,30,56,213,,23,18,313,,27,17,063,*7B
$GPGSV,4,4,13,16,04,213,*48
$BDGSV,3,1,12,02,33,240,35,03,52,201,38,04,35,123,42,10,50,288,41*60
$BDGSV,3,2,12,07,66,335,44,01,42,130,45,06,55,274,,09,44,299,*60
$BDGSV,3,3,12,14,44,302,,08,15,156,,13,12,205,,05,11,258,*6D
$GNRMC,074305.799,A,3114.8920,N,12135.2440,E,0.00,4.94,250215,,,A*78
$PSRFEPE,074306.799,A,0.8,2.04,3.01,0.2,180.0*1C
$GNGGA,074306.799,3114.8920,N,12135.2440,E,1,12,0.8,205.4,M,8.3,M,,0000,1.5*74
$GNGNS,074306.799,3114.8920,N,12135.2440,E,ANNA,12,0.8,205.4,8.3,,0000*58
$GPGSA,A,3,22,25,32,12,29,14,31,,,,,,1.7,0.8,1.5,1.0*32
$BDGSA,A,3,02,03,04,10,07,,,,,,,,1.7,0.8,1.5,1.0*29
$GNRMC,074306.799,A,3114.8920,N,12135.2440,E,0.00,4.94,250215,,,A*7B
$PSRFEPE,074307.799,A,0.8,2.04,3.01,0.2,180.0*1D
$GNGGA,074307.799,3114.8920,N,12135.2440,E,1,12,0.8,205.4,M,8.3,M,,0000,1.5*75
$GNGNS,074307.799,3114.8920,N,12135.2440,E,ANNA,12,0.8,205.4,8.3,,0000*59
$GPGSA,A,3,22,25,32,12,29,14,31,,,,,,1.7,0.8,1.5,1.0*32
$BDGSA,A,3,02,03,04,10,07,,,,,,,,1.7,0.8,1.5,1.0*29
$GNRMC,074307.799,A,3114.8920,N,12135.2440,E,0.00,4.94,250215,,,A*7A
$PSRFEPE,074308.799,A,0.8,2.01,2.96,0.2,180.0*18
$GNGGA,074308.799,3114.8920,N,12135.2440,E,1,12,0.8,205.4,M,8.3,M,,0000,1.5*7A
$GNGNS,074308.799,3114.8920,N,12135.2440,E,ANNA,12,0.8,205.4,8.3,,0000*56
$GPGSA,A,3,22,25,32,12,29,14,31,,,,,,1.7,0.8,1.5,1.0*32
$BDGSA,A,3,02,03,04,10,07,,,,,,,,1.7,0.8,1.5,1.0*29
$GNRMC,074308.799,A,3114.8920,N,12135.2440,E,0.00,4.94,250215,,,A*75
$PSRFEPE,074309.799,A,0.8,1.99,2.94,0.2,180.0*19
$GNGGA,074309.799,3114.8920,N,12135.2440,E,1,12,0.8,205.4,M,8.3,M,,0000,1.5*7B
$GNGNS,074309.799,3114.8920,N,12135.2440,E,ANNA,12,0.8,205.4,8.3,,0000*57
$GPGSA,A,3,22,25,32,12,29,14,31,,,,,,1.7,0.8,1.5,1.0*32
$BDGSA,A,3,02,03,04,10,07,,,,,,,,1.7,0.8,1.5,1.0*29
$GNRMC,074309.799,A,3114.8920,N,12135.2440,E,0.00,4.94,250215,,,A*74
$PSRF151,3,1833,28700,0x2EDFD77F*1A
$PSRFEPE,074310.799,A,0.8,1.97,2.92,0.1,180.0*1A
$GNGGA,074310.799,3114.8920,N,12135.2440,E,1,12,0.8,205.4,M,8.3,M,,0000,1.5*73
$GNGNS,074310.799,3114.8920,N,12135.2440,E,ANNA,12,0.8,205.4,8.3,,0000*5F
$GPGSA,A,3,22,25,32,12,29,14,31,,,,,,1.7,0.8,1.5,1.0*32
$BDGSA,A,3,02,03,04,10,07,,,,,,,,1.7,0.8,1.5,1.0*29
$GPGSV,4,1,13,22,34,194,42,25,46,043,49,32,37,296,47,12,09,038,43*71
$GPGSV,4,2,13,29,25,103,45,14,73,054,49,31,53,310,51,08,00,000,45*74
$GPGSV,4,3,13,18,44,212,32,30,56,213,,23,18,313,,27,17,063,*7A
$GPGSV,4,4,13,16,04,213,*48
$BDGSV,3,1,12,02,33,240,35,03,52,201,37,04,35,123,42,10,50,288,41*6F
$BDGSV,3,2,12,07,66,335,44,01,42,130,45,06,55,274,,09,44,299,*60
$BDGSV,3,3,12,14,44,302,,08,15,156,,13,12,205,,05,11,258,*6D
$GNRMC,074310.799,A,3114.8920,N,12135.2440,E,0.00,4.94,250215,,,A*7C
$PSRFEPE,074311.799,A,0.8,1.96,2.90,0.2,180.0*1B
$GNGGA,074311.799,3114.8920,N,12135.2440,E,1,12,0.8,205.4,M,8.3,M,,0000,1.5*72
$GNGNS,074311.799,3114.8920,N,12135.2440,E,ANNA,12,0.8,205.4,8.3,,0000*5E
$GPGSA,A,3,22,25,32,12,29,14,31,,,,,,1.7,0.8,1.5,1.0*32
$BDGSA,A,3,02,03,04,10,07,,,,,,,,1.7,0.8,1.5,1.0*29
$GNRMC,074311.799,A,3114.8920,N,12135.2440,E,0.00,4.94,250215,,,A*7D
$PSRFEPE,074312.799,A,0.8,1.97,2.91,0.2,180.0*18
$GNGGA,074312.799,3114.8920,N,12135.2440,E,1,12,0.8,205.4,M,8.3,M,,0000,1.5*71
$GNGNS,074312.799,3114.8920,N,12135.2440,E,ANNA,12,0.8,205.4,8.3,,0000*5D
$GPGSA,A,3,22,25,32,12,29,14,31,,,,,,1.7,0.8,1.5,1.0*32
$BDGSA,A,3,02,03,04,10,07,,,,,,,,1.7,0.8,1.5,1.0*29
$GNRMC,074312.799,A,3114.8920,N,12135.2440,E,0.00,4.94,250215,,,A*7E
$PSRFEPE,074313.799,A,0.8,1.95,2.90,0.2,180.0*1A
$GNGGA,074313.799,3114.8920,N,12135.2440,E,1,12,0.8,205.4,M,8.3,M,,0000,1.5*70
$GNGNS,074313.799,3114.8920,N,12135.2440,E,ANNA,12,0.8,205.4,8.3,,0000*5C
$GPGSA,A,3,22,25,32,12,29,14,31,,,,,,1.7,0.8,1.5,1.0*32
$BDGSA,A,3,02,03,04,10,07,,,,,,,,1.7,0.8,1.5,1.0*29
$GNRMC,074313.799,A,3114.8920,N,12135.2440,E,0.00,4.94,250215,,,A*7F
$PSRFEPE,074314.799,A,0.8,1.92,2.88,0.3,180.0*12
$GNGGA,074314.799,3114.8920,N,12135.2440,E,1,12,0.8,205.4,M,8.3,M,,0000,1.5*77
$GNGNS,074314.799,3114.8920,N,12135.2440,E,ANNA,12,0.8,205.4,8.3,,0000*5B
$GPGSA,A,3,22,25,32,12,29,14,31,,,,,,1.7,0.8,1.5,1.0*32
$BDGSA,A,3,02,03,04,10,07,,,,,,,,1.7,0.8,1.5,1.0*29
$GNRMC,074314.799,A,3114.8920,N,12135.2440,E,0.00,4.94,250215,,,A*78
$PSRFEPE,074315.799,A,0.8,1.91,2.87,0.2,180.0*1E
$GNGGA,074315.799,3114.8920,N,12135.2440,E,1,12,0.8,205.4,M,8.3,M,,0000,1.5*76
