root@atlas7-arm:~# gnssdaemon > /dev/null &
root@atlas7-arm:~# cat /tmp/agiin 
$GPVTG,0.0,T,,M,0.0,N,0.0,K,N*02
$GPGSV,2,1,08,06,00,000,30,08,00,000,42,14,00,000,47,22,00,000,41*7A
$GPGSV,2,2,08,25,00,000,49,29,00,000,42,31,00,000,47,32,00,000,44*76
$QZGSV,1,1,,,,,,,,,,,,,0.0*4B
$QZGSA,1,1,,,,,,,,,,,,,0.0*5C
$GPVTG,0.0,T,,M,0.0,N,0.0,K,N*02
$GPGSV,2,1,07,08,00,000,42,14,00,000,48,22,00,000,41,25,00,000,50*7D
$GPGSV,2,2,07,29,00,000,42,31,00,000,49,32,00,000,44*4D
$QZGSV,1,1,,,,,,,,,,,,,0.0*4B
$QZGSA,1,1,,,,,,,,,,,,,0.0*5C
$GPVTG,0.0,T,,M,0.0,N,0.0,K,N*02
$GPGSV,2,1,07,08,00,000,42,14,00,000,48,22,00,000,41,25,00,000,50*7D
$GPGSV,2,2,07,29,00,000,42,31,00,000,49,32,00,000,44*4D
$QZGSV,1,1,,,,,,,,,,,,,0.0*4B
$QZGSA,1,1,,,,,,,,,,,,,0.0*5C
$GPVTG,0.0,T,,M,0.0,N,0.0,K,N*02
$GPGSV,2,1,07,08,00,000,42,14,00,000,48,22,00,000,41,25,00,000,50*7D
$GPGSV,2,2,07,29,00,000,42,31,00,000,49,32,00,000,44*4D
$QZGSV,1,1,,,,,,,,,,,,,0.0*4B
$QZGSA,1,1,,,,,,,,,,,,,0.0*5C
$GPVTG,0.0,T,,M,0.0,N,0.0,K,N*02
$GPGSV,2,1,07,08,00,000,42,14,00,000,48,22,00,000,41,25,00,000,50*7D
$GPGSV,2,2,07,29,00,000,42,31,00,000,49,32,00,000,44*4D
$QZGSV,1,1,,,,,,,,,,,,,0.0*4B
$QZGSA,1,1,,,,,,,,,,,,,0.0*5C
$GPVTG,0.0,T,,M,0.0,N,0.0,K,N*02
$GPGSV,2,1,07,08,00,000,42,14,00,000,48,22,00,000,41,25,00,000,50*7D
$GPGSV,2,2,07,29,00,000,42,31,00,000,49,32,00,000,45*4C
$QZGSV,1,1,,,,,,,,,,,,,0.0*4B
$QZGSA,1,1,,,,,,,,,,,,,0.0*5C
$GPVTG,0.0,T,,M,0.0,N,0.0,K,N*02
$GPGSV,2,1,07,08,00,000,42,14,00,000,48,22,00,000,41,25,00,000,50*7D
$GPGSV,2,2,07,29,00,000,42,31,00,000,49,32,00,000,45*4C
$QZGSV,1,1,,,,,,,,,,,,,0.0*4B
$QZGSA,1,1,,,,,,,,,,,,,0.0*5C
$GPVTG,0.0,T,,M,0.0,N,0.0,K,N*02
$GPGSV,2,1,07,08,00,000,42,14,00,000,48,22,00,000,41,25,00,000,50*7D
$GPGSV,2,2,07,29,00,000,42,31,00,000,49,32,00,000,45*4C
$QZGSV,1,1,,,,,,,,,,,,,0.0*4B
$QZGSA,1,1,,,,,,,,,,,,,0.0*5C
$GPVTG,0.0,T,,M,0.0,N,0.0,K,N*02
$GPGSV,2,1,07,08,00,000,42,14,00,000,48,22,00,000,41,25,00,000,50*7D
$GPGSV,2,2,07,29,00,000,42,31,00,000,49,32,00,000,45*4C
$QZGSV,1,1,,,,,,,,,,,,,0.0*4B
$QZGSA,1,1,,,,,,,,,,,,,0.0*5C
$GPVTG,0.0,T,,M,0.0,N,0.0,K,N*02
$GPGSV,2,1,07,08,00,000,42,14,00,000,48,22,00,000,41,25,00,000,50*7D
$GPGSV,2,2,07,29,00,000,42,31,00,000,49,32,00,000,45*4C
$QZGSV,1,1,,,,,,,,,,,,,0.0*4B
$QZGSA,1,1,,,,,,,,,,,,,0.0*5C
$GPVTG,0.0,T,,M,0.0,N,0.0,K,N*02
$GPGSV,2,1,07,08,00,000,42,14,00,000,48,22,00,000,41,25,00,000,50*7D
$GPGSV,2,2,07,29,00,000,42,31,00,000,49,32,00,000,45*4C
$QZGSV,1,1,,,,,,,,,,,,,0.0*4B
$QZGSA,1,1,,,,,,,,,,,,,0.0*5C
$GPVTG,0.0,T,,M,0.0,N,0.0,K,N*02
$GPGSV,2,1,07,08,00,000,42,14,00,000,48,22,00,000,41,25,00,000,50*7D
$GPGSV,2,2,07,29,00,000,42,31,00,000,49,32,00,000,45*4C
$QZGSV,1,1,,,,,,,,,,,,,0.0*4B
$QZGSA,1,1,,,,,,,,,,,,,0.0*5C
$GPVTG,0.0,T,,M,0.0,N,0.0,K,N*02
$GPGSV,2,1,07,08,00,000,42,14,00,000,48,22,00,000,42,25,00,000,50*7E
$GPGSV,2,2,07,29,00,000,42,31,00,000,49,32,00,000,45*4C
$QZGSV,1,1,,,,,,,,,,,,,0.0*4B
$QZGSA,1,1,,,,,,,,,,,,,0.0*5C
$GPVTG,0.0,T,,M,0.0,N,0.0,K,N*02
$GPGSV,2,1,07,08,00,000,42,14,00,000,48,22,00,000,42,25,00,000,49*76
$GPGSV,2,2,07,29,00,000,42,31,00,000,49,32,00,000,45*4C
$QZGSV,1,1,,,,,,,,,,,,,0.0*4B
$QZGSA,1,1,,,,,,,,,,,,,0.0*5C
$GPVTG,0.0,T,,M,0.0,N,0.0,K,N*02
$GPGSV,2,1,07,08,00,000,42,14,00,000,48,22,00,000,42,25,00,000,49*76
$GPGSV,2,2,07,29,00,000,42,31,00,000,49,32,00,000,45*4C
$QZGSV,1,1,,,,,,,,,,,,,0.0*4B
$QZGSA,1,1,,,,,,,,,,,,,0.0*5C
$GPVTG,0.0,T,,M,0.0,N,0.0,K,N*02
$GPGSV,2,1,07,08,00,000,42,14,00,000,48,22,00,000,42,25,00,000,49*76
$GPGSV,2,2,07,29,00,000,42,31,00,000,49,32,00,000,45*4C
$QZGSV,1,1,,,,,,,,,,,,,0.0*4B
$QZGSA,1,1,,,,,,,,,,,,,0.0*5C
$GPVTG,0.0,T,,M,0.0,N,0.0,K,N*02
$GPGSV,2,1,07,08,00,000,42,14,00,000,48,22,00,000,42,25,00,000,49*76
$GPGSV,2,2,07,29,00,000,42,31,00,000,49,32,00,000,45*4C
$QZGSV,1,1,,,,,,,,,,,,,0.0*4B
$QZGSA,1,1,,,,,,,,,,,,,0.0*5C
$GPVTG,0.0,T,,M,0.0,N,0.0,K,N*02
$GPGSV,2,1,07,08,00,000,42,14,00,000,48,22,00,000,42,25,00,000,49*76
$GPGSV,2,2,07,29,00,000,42,31,00,000,49,32,00,000,45*4C
$QZGSV,1,1,,,,,,,,,,,,,0.0*4B
$QZGSA,1,1,,,,,,,,,,,,,0.0*5C
$GPVTG,0.0,T,,M,0.0,N,0.0,K,N*02
$GPGSV,2,1,07,08,00,000,42,14,00,000,48,22,00,000,42,25,00,000,49*76
$GPGSV,2,2,07,29,00,000,42,31,00,000,49,32,00,000,45*4C
$QZGSV,1,1,,,,,,,,,,,,,0.0*4B
$QZGSA,1,1,,,,,,,,,,,,,0.0*5C
$GPVTG,0.0,T,,M,0.0,N,0.0,K,N*02
$GPGSV,2,1,07,08,00,000,42,14,00,000,48,22,00,000,42,25,00,000,49*76
$GPGSV,2,2,07,29,00,000,42,31,00,000,49,32,00,000,45*4C
$QZGSV,1,1,,,,,,,,,,,,,0.0*4B
$QZGSA,1,1,,,,,,,,,,,,,0.0*5C
$GPVTG,0.0,T,,M,0.0,N,0.0,K,N*02
$GPGSV,2,1,07,08,00,000,42,14,00,000,48,22,00,000,42,25,00,000,49*76
$GPGSV,2,2,07,29,00,000,42,31,00,000,49,32,00,000,45*4C
$GLGSV,1,1,04,78,28,324,37,70,03,019,29,76,26,187,42,88,29,277,32*67
$QZGSV,1,1,,,,,,,,,,,,,0.0*4B
$QZGSA,1,1,,,,,,,,,,,,,0.0*5C
$GLGSA,A,1,,,,,,,,,,,,,,,,50.0,*19
$GPVTG,0.0,T,,M,0.0,N,0.0,K,N*02
$GPGSV,2,1,07,08,00,000,42,14,53,043,48,22,60,212,42,25,25,031,49*75
$GPGSV,2,2,07,29,32,102,42,31,24,298,49,32,47,297,45*44
$GLGSV,2,1,05,78,44,322,38,76,17,163,42,79,00,334,45,88,54,278,32*67
$GLGSV,2,2,05,81,08,244,35*55
$QZGSV,1,1,,,,,,,,,,,,,0.0*4B
$QZGSA,1,1,,,,,,,,,,,,,0.0*5C
$GLGSA,A,1,,,,,,,,,,,,,,,,50.0,*19
$GPVTG,0.0,T,,M,0.0,N,0.0,K,N*02
$GPGSV,2,1,07,08,00,000,42,14,53,043,48,22,60,212,42,25,25,031,49*75
$GPGSV,2,2,07,29,32,102,42,31,24,298,49,32,47,297,45*44
$GLGSV,2,1,05,78,44,322,38,76,17,163,42,79,00,334,45,88,54,278,32*67
$GLGSV,2,2,05,81,08,244,35*55
$QZGSV,1,1,,,,,,,,,,,,,0.0*4B
$QZGSA,1,1,,,,,,,,,,,,,0.0*5C
$GLGSA,A,1,,,,,,,,,,,,,,,,50.0,*19
$GPVTG,0.0,T,,M,0.0,N,0.0,K,N*02
$GPGSV,2,1,07,08,00,000,42,14,53,043,48,22,60,212,42,25,25,031,49*75
$GPGSV,2,2,07,29,32,102,42,31,24,298,49,32,47,297,45*44
$GLGSV,2,1,05,78,44,322,38,76,17,163,42,79,00,334,45,88,54,278,32*67
$GLGSV,2,2,05,81,08,244,35*55
$QZGSV,1,1,,,,,,,,,,,,,0.0*4B
$QZGSA,1,1,,,,,,,,,,,,,0.0*5C
$GLGSA,A,1,,,,,,,,,,,,,,,,50.0,*19
$GPVTG,0.0,T,,M,0.0,N,0.0,K,N*02
$GPGSV,2,1,07,08,00,000,42,14,53,043,48,22,60,212,42,25,25,031,49*75
$GPGSV,2,2,07,29,32,102,42,31,24,298,49,32,47,297,45*44
$GLGSV,2,1,05,78,44,322,38,76,17,163,42,79,00,334,45,88,54,278,32*67
$GLGSV,2,2,05,81,08,244,35*55
$QZGSV,1,1,,,,,,,,,,,,,0.0*4B
$QZGSA,1,1,,,,,,,,,,,,,0.0*5C
$GLGSA,A,1,,,,,,,,,,,,,,,,50.0,*19
$GPVTG,0.0,T,,M,0.0,N,0.0,K,N*02
$GPGSV,2,1,07,08,00,000,42,14,53,043,48,22,60,212,42,25,25,031,49*75
$GPGSV,2,2,07,29,32,102,42,31,24,298,49,32,47,297,44*45
$GLGSV,2,1,05,78,44,322,38,76,17,163,42,79,00,334,45,88,54,278,33*66
$GLGSV,2,2,05,81,08,244,35*55
$QZGSV,1,1,,,,,,,,,,,,,0.0*4B
$QZGSA,1,1,,,,,,,,,,,,,0.0*5C
$GLGSA,A,1,,,,,,,,,,,,,,,,50.0,*19
$GPVTG,0.0,T,,M,0.0,N,0.0,K,N*02
$GPGSV,2,1,07,08,00,000,42,14,53,043,48,22,60,212,42,25,25,031,49*75
$GPGSV,2,2,07,29,32,102,42,31,24,298,49,32,47,297,44*45
$GLGSV,2,1,05,78,44,322,38,76,17,163,42,79,00,334,45,88,54,278,33*66
$GLGSV,2,2,05,81,08,244,35*55
$QZGSV,1,1,,,,,,,,,,,,,0.0*4B
$QZGSA,1,1,,,,,,,,,,,,,0.0*5C
$GLGSA,A,1,,,,,,,,,,,,,,,,50.0,*19
$GPVTG,0.0,T,,M,0.0,N,0.0,K,N*02
$GPGSV,2,1,07,08,00,000,42,14,53,043,48,22,60,212,42,25,25,031,49*75
$GPGSV,2,2,07,29,32,102,42,31,24,298,49,32,47,297,44*45
$GLGSV,2,1,05,78,44,322,38,76,17,163,42,79,00,334,45,88,54,278,33*66
$GLGSV,2,2,05,81,08,244,35*55
$QZGSV,1,1,,,,,,,,,,,,,0.0*4B
$QZGSA,1,1,,,,,,,,,,,,,0.0*5C
$GLGSA,A,1,,,,,,,,,,,,,,,,50.0,*19
$GPVTG,0.0,T,,M,0.0,N,0.0,K,N*02
$GPGSV,2,1,07,08,00,000,42,14,53,043,48,22,60,212,42,25,25,031,49*75
$GPGSV,2,2,07,29,32,102,42,31,24,298,49,32,47,297,44*45
$GLGSV,2,1,06,78,44,322,38,82,17,247,32,76,17,163,42,79,00,334,45*65
$GLGSV,2,2,06,88,54,278,33,81,08,244,35*6A
$QZGSV,1,1,,,,,,,,,,,,,0.0*4B
$QZGSA,1,1,,,,,,,,,,,,,0.0*5C
$GLGSA,A,1,,,,,,,,,,,,,,,,50.0,*19
$GPVTG,0.0,T,,M,0.0,N,0.0,K,N*02
$GPGSV,2,1,07,08,00,000,42,14,53,043,48,22,60,212,42,25,25,031,49*75
$GPGSV,2,2,07,29,32,102,42,31,24,298,49,32,47,297,44*45
$GLGSV,2,1,06,78,44,322,38,82,17,247,32,76,17,163,42,79,00,334,45*65
$GLGSV,2,2,06,88,54,278,33,81,08,244,35*6A
$QZGSV,1,1,,,,,,,,,,,,,0.0*4B
$QZGSA,1,1,,,,,,,,,,,,,0.0*5C
$GLGSA,A,1,,,,,,,,,,,,,,,,50.0,*19
$GPVTG,0.0,T,,M,0.0,N,0.0,K,N*02
$GPGSV,2,1,07,08,00,000,42,14,53,043,48,22,60,212,42,25,25,031,49*75
$GPGSV,2,2,07,29,32,102,42,31,24,298,49,32,47,297,44*45
$GLGSV,2,1,06,78,44,322,38,82,17,247,32,76,17,163,42,79,00,334,45*65
$GLGSV,2,2,06,88,54,278,33,81,08,244,35*6A
$QZGSV,1,1,,,,,,,,,,,,,0.0*4B
$QZGSA,1,1,,,,,,,,,,,,,0.0*5C
$GLGSA,A,1,,,,,,,,,,,,,,,,50.0,*19
$GPVTG,0.0,T,,M,0.0,N,0.0,K,N*02
$GPGSV,2,1,07,08,00,000,42,14,53,043,48,22,60,212,42,25,25,031,49*75
$GPGSV,2,2,07,29,32,102,43,31,24,298,49,32,47,297,44*44
$GLGSV,2,1,06,78,44,322,38,82,17,247,32,76,17,163,43,79,00,334,45*64
$GLGSV,2,2,06,88,54,278,33,81,08,244,35*6A
$QZGSV,1,1,,,,,,,,,,,,,0.0*4B
$QZGSA,1,1,,,,,,,,,,,,,0.0*5C
$GLGSA,A,1,,,,,,,,,,,,,,,,50.0,*19
$GPVTG,0.0,T,,M,0.0,N,0.0,K,N*02
$GPGSV,2,1,07,08,00,000,42,14,53,043,48,22,60,212,42,25,25,031,49*75
$GPGSV,2,2,07,29,32,102,43,31,24,298,49,32,47,297,44*44
$GLGSV,2,1,06,78,44,322,38,82,17,247,33,76,17,163,43,79,00,334,45*65
$GLGSV,2,2,06,88,54,278,34,81,08,244,35*6D
$QZGSV,1,1,,,,,,,,,,,,,0.0*4B
$QZGSA,1,1,,,,,,,,,,,,,0.0*5C
$GLGSA,A,1,,,,,,,,,,,,,,,,50.0,*19
$GPGSA,A,3,14,22,25,29,31,32,,,,,,,,1.2,*3B
$GPVTG,0.0,T,,M,0.0,N,0.0,K,A*0D
$GPGSV,2,1,07,08,00,000,42,14,51,019,48,22,58,205,42,25,29,029,49*70
$GPGSV,2,2,07,29,27,088,43,31,34,326,49,32,23,312,44*48
$GLGSV,2,1,05,78,39,324,37,82,14,252,32,76,22,167,42,88,47,283,33*61
$GLGSV,2,2,05,81,05,248,34*55
$QZGSV,1,1,,,,,,,,,,,,,0.0*4B
$QZGSA,1,1,,,,,,,,,,,,,0.0*5C
$GLGSA,A,3,,,,,,,,,,,,,,,,1.2,*2D
$GNGSA,A,3,14,22,25,29,31,32,,,,,,,3.0,1.2,2.6*22
$GPGGA,074004.151,3114.8866,N,12135.2453,E,1,06,1.2,180.8,M,8.3,M,,*62
$GPGLL,3114.8866,N,12135.2453,E,074004.151,A,A*58
$GPRMC,074004.151,A,3114.8866,N,12135.2453,E,0.0,0.0,250215,,,A*6E
$GPGSA,A,1,14,22,25,29,31,32,,,,,,,,1.2,*39
$GPVTG,0.0,T,,M,0.0,N,0.0,K,N*02
$GPGSV,2,1,07,08,00,000,42,14,72,050,48,22,35,194,42,25,48,044,49*70
$GPGSV,2,2,07,29,24,104,43,31,52,308,49,32,37,297,44*4B
$GLGSV,2,1,08,78,21,036,37,82,08,100,33,70,19,328,30,80,30,264,43*69
$GLGSV,2,2,08,79,53,346,45,69,70,283,41,88,09,061,28,81,08,111,34*62
$QZGSV,1,1,,,,,,,,,,,,,0.0*4B
$QZGSA,1,1,,,,,,,,,,,,,0.0*5C
$GLGSA,A,1,,,,,,,,,,,,,,,,1.2,*2F
$GNGSA,A,1,14,22,25,29,31,32,,,,,,,3.0,1.2,2.6*20
$GPGSA,A,1,14,22,25,29,31,32,,,,,,,,1.2,*39
$GPVTG,0.0,T,,M,0.0,N,0.0,K,N*02
$GPGSV,2,1,08,08,00,000,42,12,11,038,41,14,72,050,48,22,35,194,42*74
$GPGSV,2,2,08,25,48,044,49,29,24,104,43,31,52,308,49,32,37,297,44*72
$GLGSV,3,1,09,78,21,036,38,82,08,100,33,70,19,328,31,80,30,264,43*67
$GLGSV,3,2,09,79,53,346,45,69,70,283,41,88,09,061,28,81,08,110,34*63
$GLGSV,3,3,09,68,42,173,40*55
$QZGSV,1,1,,,,,,,,,,,,,0.0*4B
$QZGSA,1,1,,,,,,,,,,,,,0.0*5C
$GLGSA,A,1,,,,,,,,,,,,,,,,1.2,*2F
$GNGSA,A,1,14,22,25,29,31,32,,,,,,,3.0,1.2,2.6*20
$GPGSA,A,3,14,22,25,29,31,32,,,,,,,,1.2,*3B
$GPVTG,0.0,T,,M,0.0,N,0.0,K,A*0D
$GPGSV,2,1,08,08,00,000,42,12,11,038,41,14,72,050,48,22,35,194,42*74
$GPGSV,2,2,08,25,48,044,49,29,24,104,43,31,52,308,49,32,37,297,44*72
$GLGSV,3,1,09,78,21,036,38,82,08,100,33,70,19,328,32,80,30,264,43*64
$GLGSV,3,2,09,79,53,346,45,69,70,283,42,88,09,061,27,81,08,110,34*6F
$GLGSV,3,3,09,68,42,173,41*54
$QZGSV,1,1,,,,,,,,,,,,,0.0*4B
$QZGSA,1,1,,,,,,,,,,,,,0.0*5C
$GLGSA,A,3,,,,,,,,,,,,,,,,1.2,*2D
$GNGSA,A,3,14,22,25,29,31,32,,,,,,,3.0,1.2,2.6*22
$GPGGA,074007.000,3114.8857,N,12135.2453,E,1,06,1.2,174.8,M,8.3,M,,*6D
$GPGLL,3114.8857,N,12135.2453,E,074007.000,A,A*5C
$GPRMC,074007.000,A,3114.8857,N,12135.2453,E,0.0,0.0,250215,,,A*6A
$GPGSA,A,3,14,22,25,29,31,32,,,,,,,,1.2,*3B
$GPVTG,0.0,T,,M,0.0,N,0.0,K,A*0D
$GPGSV,2,1,08,08,00,000,42,12,11,038,41,14,72,050,48,22,35,194,42*74
$GPGSV,2,2,08,25,48,044,49,29,24,104,43,31,52,308,49,32,37,297,44*72
$GLGSV,3,1,09,78,21,036,38,82,08,100,33,70,19,328,32,80,30,264,43*64
$GLGSV,3,2,09,79,53,346,45,69,70,283,42,88,09,061,28,81,08,110,34*60
$GLGSV,3,3,09,68,42,173,41*54
$QZGSV,1,1,,,,,,,,,,,,,0.0*4B
$QZGSA,1,1,,,,,,,,,,,,,0.0*5C
$GLGSA,A,3,,,,,,,,,,,,,,,,1.2,*2D
$GNGSA,A,3,14,22,25,29,31,32,,,,,,,3.0,1.2,2.6*22
$GPGGA,074008.000,3114.8857,N,12135.2453,E,1,06,1.2,174.7,M,8.3,M,,*6D
$GPGLL,3114.8857,N,12135.2453,E,074008.000,A,A*53
$GPRMC,074008.000,A,3114.8857,N,12135.2453,E,0.0,0.0,250215,,,A*65
$GPGSA,A,3,14,22,25,29,31,32,,,,,,,,1.2,*3B
$GPVTG,0.0,T,,M,0.0,N,0.0,K,A*0D
$GPGSV,2,1,08,08,00,000,42,12,11,038,41,14,72,050,48,22,35,194,43*75
$GPGSV,2,2,08,25,48,044,49,29,24,104,43,31,52,308,49,32,37,297,44*72
$GLGSV,3,1,09,78,21,036,38,82,08,100,33,70,19,328,32,80,30,264,43*64
$GLGSV,3,2,09,79,53,346,45,69,70,283,42,88,09,061,28,81,08,110,34*60
$GLGSV,3,3,09,68,42,173,42*57
$QZGSV,1,1,,,,,,,,,,,,,0.0*4B
$QZGSA,1,1,,,,,,,,,,,,,0.0*5C
$GLGSA,A,3,,,,,,,,,,,,,,,,1.2,*2D
$GNGSA,A,3,14,22,25,29,31,32,,,,,,,3.0,1.2,2.6*22
$GPGGA,074009.000,3114.8857,N,12135.2453,E,1,06,1.2,174.7,M,8.3,M,,*6C
$GPGLL,3114.8857,N,12135.2453,E,074009.000,A,A*52
$GPRMC,074009.000,A,3114.8857,N,12135.2453,E,0.0,0.0,250215,,,A*64
$GPGSA,A,3,14,22,25,29,31,32,,,,,,,,1.2,*3B
$GPVTG,0.0,T,,M,0.0,N,0.0,K,A*0D
$GPGSV,2,1,08,08,00,000,42,12,11,038,41,14,72,050,48,22,35,194,43*75
$GPGSV,2,2,08,25,48,044,49,29,24,104,43,31,52,308,49,32,37,297,44*72
$GLGSV,3,1,09,78,21,036,38,82,08,100,33,70,19,328,32,80,30,264,43*64
$GLGSV,3,2,09,79,53,346,45,69,70,283,42,88,09,061,29,81,08,110,34*61
$GLGSV,3,3,09,68,42,173,42*57
$QZGSV,1,1,,,,,,,,,,,,,0.0*4B
$QZGSA,1,1,,,,,,,,,,,,,0.0*5C
$GLGSA,A,3,,,,,,,,,,,,,,,,1.2,*2D
$GNGSA,A,3,14,22,25,29,31,32,,,,,,,3.0,1.2,2.6*22
$GPGGA,074010.000,3114.8857,N,12135.2453,E,1,06,1.2,174.7,M,8.3,M,,*64
$GPGLL,3114.8857,N,12135.2453,E,074010.000,A,A*5A
$GPRMC,074010.000,A,3114.8857,N,12135.2453,E,0.0,0.0,250215,,,A*6C
$GPGSA,A,3,14,22,25,29,31,32,,,,,,,,1.2,*3B
$GPVTG,0.0,T,,M,0.0,N,0.0,K,A*0D
$GPGSV,2,1,08,08,00,000,42,12,11,038,41,14,72,050,48,22,35,194,43*75
$GPGSV,2,2,08,25,48,044,49,29,24,104,43,31,52,308,49,32,37,297,44*72
$GLGSV,3,1,09,78,21,036,38,82,08,100,33,70,19,328,32,80,30,264,43*64
$GLGSV,3,2,09,79,53,346,45,69,70,283,42,88,09,061,32,81,08,110,34*6B
$GLGSV,3,3,09,68,42,173,42*57
$QZGSV,1,1,,,,,,,,,,,,,0.0*4B
$QZGSA,1,1,,,,,,,,,,,,,0.0*5C
$GLGSA,A,3,,,,,,,,,,,,,,,,1.2,*2D
$GNGSA,A,3,14,22,25,29,31,32,,,,,,,3.0,1.2,2.6*22
$GPGGA,074011.000,3114.8857,N,12135.2453,E,1,06,1.2,174.7,M,8.3,M,,*65
$GPGLL,3114.8857,N,12135.2453,E,074011.000,A,A*5B
$GPRMC,074011.000,A,3114.8857,N,12135.2453,E,0.0,0.0,250215,,,A*6D
$GPGSA,A,3,14,22,25,29,31,32,,,,,,,,1.2,*3B
$GPVTG,0.0,T,,M,0.0,N,0.0,K,A*0D
$GPGSV,2,1,08,08,00,000,42,12,11,038,41,14,72,050,48,22,35,194,43*75
$GPGSV,2,2,08,25,48,044,49,29,24,104,43,31,52,308,49,32,37,297,44*72
$GLGSV,3,1,09,78,21,036,38,82,08,100,33,70,19,328,32,80,30,264,43*64
$GLGSV,3,2,09,79,53,346,45,69,70,283,42,88,09,061,35,81,08,110,34*6C
$GLGSV,3,3,09,68,42,173,42*57
$QZGSV,1,1,,,,,,,,,,,,,0.0*4B
$QZGSA,1,1,,,,,,,,,,,,,0.0*5C
$GLGSA,A,3,,,,,,,,,,,,,,,,1.2,*2D
$GNGSA,A,3,14,22,25,29,31,32,,,,,,,3.0,1.2,2.6*22
$GPGGA,074012.000,3114.8857,N,12135.2453,E,1,06,1.2,174.7,M,8.3,M,,*66
$GPGLL,3114.8857,N,12135.2453,E,074012.000,A,A*58
$GPRMC,074012.000,A,3114.8857,N,12135.2453,E,0.0,0.0,250215,,,A*6E
$GPGSA,A,3,14,22,25,29,31,32,,,,,,,,1.2,*3B
$GPVTG,0.0,T,,M,0.0,N,0.0,K,A*0D
$GPGSV,2,1,08,08,00,000,42,12,11,038,42,14,72,050,48,22,35,194,43*76
$GPGSV,2,2,08,25,48,044,49,29,24,104,43,31,52,308,49,32,37,297,44*72
$GLGSV,3,1,09,78,21,036,38,82,08,100,33,70,19,328,32,80,30,264,44*63
$GLGSV,3,2,09,79,53,346,45,69,70,283,42,88,09,061,35,81,08,110,34*6C
$GLGSV,3,3,09,68,42,173,42*57
$QZGSV,1,1,,,,,,,,,,,,,0.0*4B
$QZGSA,1,1,,,,,,,,,,,,,0.0*5C
$GLGSA,A,3,,,,,,,,,,,,,,,,1.2,*2D
$GNGSA,A,3,14,22,25,29,31,32,,,,,,,3.0,1.2,2.6*22
$GPGGA,074013.000,3114.8857,N,12135.2453,E,1,06,1.2,174.7,M,8.3,M,,*67
$GPGLL,3114.8857,N,12135.2453,E,074013.000,A,A*59
$GPRMC,074013.000,A,3114.8857,N,12135.2453,E,0.0,0.0,250215,,,A*6F
$GPGSA,A,3,14,22,25,29,31,32,,,,,,,,1.2,*3B
$GPVTG,0.0,T,,M,0.0,N,0.0,K,A*0D
$GPGSV,3,1,09,08,00,000,42,12,11,038,42,14,72,050,48,18,05,165,28*7F
$GPGSV,3,2,09,22,35,194,43,25,48,044,49,29,24,104,43,31,52,308,49*76
$GPGSV,3,3,09,32,37,297,44*49
$GLGSV,3,1,09,78,21,036,38,82,08,100,33,70,19,328,32,80,30,264,44*63
$GLGSV,3,2,09,79,53,346,45,69,70,283,42,88,09,061,34,81,08,110,34*6D
$GLGSV,3,3,09,68,42,173,42*57
$QZGSV,1,1,,,,,,,,,,,,,0.0*4B
$QZGSA,1,1,,,,,,,,,,,,,0.0*5C
$GLGSA,A,3,,,,,,,,,,,,,,,,1.2,*2D
$GNGSA,A,3,14,22,25,29,31,32,,,,,,,3.0,1.2,2.6*22
$GPGGA,074014.000,3114.8857,N,12135.2453,E,1,06,1.2,174.7,M,8.3,M,,*60
$GPGLL,3114.8857,N,12135.2453,E,074014.000,A,A*5E
$GPRMC,074014.000,A,3114.8857,N,12135.2453,E,0.0,0.0,250215,,,A*68
$GPGSA,A,3,14,22,25,29,31,32,,,,,,,,1.2,*3B
$GPVTG,0.0,T,,M,0.0,N,0.0,K,A*0D
$GPGSV,3,1,09,08,00,000,42,12,11,038,42,14,72,050,48,18,05,165,29*7E
$GPGSV,3,2,09,22,35,194,43,25,48,044,49,29,24,104,43,31,52,308,49*76
$GPGSV,3,3,09,32,37,297,44*49
$GLGSV,3,1,09,78,21,036,38,82,08,100,33,70,19,328,32,80,30,264,44*63
$GLGSV,3,2,09,79,53,346,45,69,70,283,42,88,09,061,34,81,08,110,34*6D
$GLGSV,3,3,09,68,42,173,42*57
$QZGSV,1,1,,,,,,,,,,,,,0.0*4B
$QZGSA,1,1,,,,,,,,,,,,,0.0*5C
$GLGSA,A,3,,,,,,,,,,,,,,,,1.2,*2D
$GNGSA,A,3,14,22,25,29,31,32,,,,,,,3.0,1.2,2.6*22
$GPGGA,074015.000,3114.8857,N,12135.2453,E,1,06,1.2,174.7,M,8.3,M,,*61
$GPGLL,3114.8857,N,12135.2453,E,074015.000,A,A*5F
$GPRMC,074015.000,A,3114.8857,N,12135.2453,E,0.0,0.0,250215,,,A*69
$GPGSA,A,3,14,22,25,29,31,32,,,,,,,,1.2,*3B
$GPVTG,0.0,T,,M,0.0,N,0.0,K,A*0D
$GPGSV,3,1,09,08,00,000,42,12,11,038,42,14,72,050,48,18,05,165,29*7E
$GPGSV,3,2,09,22,35,194,43,25,48,044,49,29,24,104,43,31,52,308,49*76
$GPGSV,3,3,09,32,37,297,44*49
$GLGSV,3,1,09,78,21,036,38,82,08,100,33,70,19,328,32,80,30,264,44*63
$GLGSV,3,2,09,79,53,346,45,69,70,283,42,88,09,061,34,81,08,110,34*6D
$GLGSV,3,3,09,68,42,173,42*57
$QZGSV,1,1,,,,,,,,,,,,,0.0*4B
$QZGSA,1,1,,,,,,,,,,,,,0.0*5C
$GLGSA,A,3,,,,,,,,,,,,,,,,1.2,*2D
$GNGSA,A,3,14,22,25,29,31,32,,,,,,,3.0,1.2,2.6*22
$GPGGA,074016.000,3114.8857,N,12135.2453,E,1,06,1.2,174.7,M,8.3,M,,*62
$GPGLL,3114.8857,N,12135.2453,E,074016.000,A,A*5C
$GPRMC,074016.000,A,3114.8857,N,12135.2453,E,0.0,0.0,250215,,,A*6A
$GPGSA,A,3,14,22,25,29,31,32,,,,,,,,1.2,*3B
$GPVTG,0.0,T,,M,0.0,N,0.0,K,A*0D
$GPGSV,3,1,09,08,00,000,42,12,11,038,42,14,72,050,48,18,05,165,29*7E
$GPGSV,3,2,09,22,35,194,42,25,48,044,49,29,24,104,43,31,52,308,49*77
$GPGSV,3,3,09,32,37,297,44*49
$GLGSV,3,1,09,78,21,036,37,82,08,100,33,70,19,328,32,80,30,264,44*6C
$GLGSV,3,2,09,79,53,346,45,69,70,283,42,88,09,061,34,81,08,110,34*6D
$GLGSV,3,3,09,68,42,173,42*57
$QZGSV,1,1,,,,,,,,,,,,,0.0*4B
$QZGSA,1,1,,,,,,,,,,,,,0.0*5C
$GLGSA,A,3,,,,,,,,,,,,,,,,1.2,*2D
$GNGSA,A,3,14,22,25,29,31,32,,,,,,,3.0,1.2,2.8*2C
$GPGGA,074017.000,3114.8857,N,12135.2453,E,1,06,1.2,174.7,M,8.3,M,,*63
$GPGLL,3114.8857,N,12135.2453,E,074017.000,A,A*5D
$GPRMC,074017.000,A,3114.8857,N,12135.2453,E,0.0,0.0,250215,,,A*6B
$GPGSA,A,3,14,22,25,29,31,32,,,,,,,,1.2,*3B
$GPVTG,0.0,T,,M,0.0,N,0.0,K,A*0D
$GPGSV,3,1,09,08,00,000,42,12,11,038,42,14,72,050,48,18,05,165,30*76
$GPGSV,3,2,09,22,35,194,42,25,48,044,49,29,24,104,43,31,52,308,49*77
$GPGSV,3,3,09,32,37,297,45*48
$GLGSV,3,1,09,78,21,036,37,82,08,100,33,70,19,328,32,80,30,264,44*6C
$GLGSV,3,2,09,79,53,346,45,69,70,283,42,88,09,061,33,81,08,110,34*6A
$GLGSV,3,3,09,68,42,173,42*57
$QZGSV,1,1,,,,,,,,,,,,,0.0*4B
$QZGSA,1,1,,,,,,,,,,,,,0.0*5C
$GLGSA,A,3,,,,,,,,,,,,,,,,1.2,*2D
$GNGSA,A,3,14,22,25,29,31,32,,,,,,,3.0,1.2,2.8*2C
$GPGGA,074018.000,3114.8857,N,12135.2453,E,1,06,1.2,174.7,M,8.3,M,,*6C
$GPGLL,3114.8857,N,12135.2453,E,074018.000,A,A*52
$GPRMC,074018.000,A,3114.8857,N,12135.2453,E,0.0,0.0,250215,,,A*64
$GPGSA,A,3,14,22,25,29,31,32,,,,,,,,1.2,*3B
$GPVTG,0.0,T,,M,0.0,N,0.0,K,A*0D
$GPGSV,3,1,09,08,00,000,42,12,11,038,42,14,72,050,48,18,05,165,30*76
$GPGSV,3,2,09,22,35,194,42,25,48,044,49,29,24,104,43,31,52,308,49*77
$GPGSV,3,3,09,32,37,297,45*48
$GLGSV,3,1,09,78,21,036,37,82,08,100,33,70,19,328,32,80,30,264,44*6C
$GLGSV,3,2,09,79,53,346,45,69,70,283,42,88,09,061,33,81,08,110,34*6A
$GLGSV,3,3,09,68,42,173,42*57
$QZGSV,1,1,,,,,,,,,,,,,0.0*4B
$QZGSA,1,1,,,,,,,,,,,,,0.0*5C
$GLGSA,A,3,,,,,,,,,,,,,,,,1.2,*2D
$GNGSA,A,3,14,22,25,29,31,32,,,,,,,3.0,1.2,2.8*2C
$GPGGA,074019.000,3114.8857,N,12135.2453,E,1,06,1.2,174.7,M,8.3,M,,*6D
$GPGLL,3114.8857,N,12135.2453,E,074019.000,A,A*53
$GPRMC,074019.000,A,3114.8857,N,12135.2453,E,0.0,0.0,250215,,,A*65
$GPGSA,A,3,14,22,25,29,31,32,,,,,,,,1.2,*3B
$GPVTG,0.0,T,,M,0.0,N,0.0,K,A*0D
$GPGSV,3,1,09,08,00,000,42,12,11,038,42,14,72,050,48,18,05,165,30*76
$GPGSV,3,2,09,22,35,194,42,25,48,044,49,29,24,104,43,31,52,308,49*77
$GPGSV,3,3,09,32,37,297,45*48
$GLGSV,3,1,09,78,21,036,37,82,08,100,33,70,19,328,32,80,30,264,44*6C
$GLGSV,3,2,09,79,53,346,45,69,70,283,42,88,09,061,33,81,08,110,34*6A
$GLGSV,3,3,09,68,42,173,42*57
$QZGSV,1,1,,,,,,,,,,,,,0.0*4B
$QZGSA,1,1,,,,,,,,,,,,,0.0*5C
$GLGSA,A,3,,,,,,,,,,,,,,,,1.2,*2D
$GNGSA,A,3,14,22,25,29,31,32,,,,,,,3.0,1.2,2.8*2C
$GPGGA,074020.000,3114.8857,N,12135.2453,E,1,06,1.2,174.7,M,8.3,M,,*67
$GPGLL,3114.8857,N,12135.2453,E,074020.000,A,A*59
$GPRMC,074020.000,A,3114.8857,N,12135.2453,E,0.0,0.0,250215,,,A*6F
$GPGSA,A,3,14,22,25,29,31,32,,,,,,,,1.2,*3B
$GPVTG,0.0,T,,M,0.0,N,0.0,K,A*0D
$GPGSV,3,1,09,08,00,000,42,12,11,038,42,14,72,050,48,18,05,165,30*76
$GPGSV,3,2,09,22,35,194,42,25,48,044,49,29,24,104,43,31,52,308,49*77
$GPGSV,3,3,09,32,37,297,45*48
$GLGSV,3,1,09,78,21,036,37,82,08,100,33,70,19,328,33,80,30,264,44*6D
$GLGSV,3,2,09,79,53,346,45,69,70,283,42,88,09,061,33,81,08,110,34*6A
$GLGSV,3,3,09,68,42,173,42*57
$QZGSV,1,1,,,,,,,,,,,,,0.0*4B
$QZGSA,1,1,,,,,,,,,,,,,0.0*5C
$GLGSA,A,3,,,,,,,,,,,,,,,,1.2,*2D
$GNGSA,A,3,14,22,25,29,31,32,,,,,,,3.0,1.2,2.8*2C
$GPGGA,074021.000,3114.8857,N,12135.2453,E,1,06,1.2,174.7,M,8.3,M,,*66
$GPGLL,3114.8857,N,12135.2453,E,074021.000,A,A*58
$GPRMC,074021.000,A,3114.8857,N,12135.2453,E,0.0,0.0,250215,,,A*6E
$GPGSA,A,3,14,22,25,29,31,32,,,,,,,,1.2,*3B
$GPVTG,0.0,T,,M,0.0,N,0.0,K,A*0D
$GPGSV,3,1,09,08,00,000,42,12,11,038,42,14,72,050,48,18,05,165,30*76
$GPGSV,3,2,09,22,35,194,42,25,48,044,49,29,24,104,43,31,52,308,49*77
$GPGSV,3,3,09,32,37,297,45*48
$GLGSV,3,1,09,78,21,036,37,82,08,100,33,70,19,328,33,80,30,264,44*6D
$GLGSV,3,2,09,79,53,346,45,69,70,283,42,88,09,061,33,81,08,110,34*6A
$GLGSV,3,3,09,68,42,173,42*57
$QZGSV,1,1,,,,,,,,,,,,,0.0*4B
$QZGSA,1,1,,,,,,,,,,,,,0.0*5C
$GLGSA,A,3,,,,,,,,,,,,,,,,1.2,*2D
$GNGSA,A,3,14,22,25,29,31,32,,,,,,,3.0,1.2,2.8*2C
$GPGGA,074022.000,3114.8857,N,12135.2453,E,1,06,1.2,174.7,M,8.3,M,,*65
$GPGLL,3114.8857,N,12135.2453,E,074022.000,A,A*5B
$GPRMC,074022.000,A,3114.8857,N,12135.2453,E,0.0,0.0,250215,,,A*6D
$GPGSA,A,3,14,22,25,29,31,32,,,,,,,,1.2,*3B
$GPVTG,0.0,T,,M,0.0,N,0.0,K,A*0D
$GPGSV,3,1,09,08,00,000,42,12,11,038,42,14,72,050,48,18,05,165,30*76
$GPGSV,3,2,09,22,35,194,42,25,48,044,48,29,24,104,43,31,52,308,49*76
$GPGSV,3,3,09,32,37,297,45*48
$GLGSV,3,1,09,78,21,036,37,82,08,100,33,70,19,328,33,80,30,264,44*6D
$GLGSV,3,2,09,79,53,346,45,69,70,283,42,88,09,061,33,81,08,110,34*6A
$GLGSV,3,3,09,68,42,173,42*57
$QZGSV,1,1,,,,,,,,,,,,,0.0*4B
$QZGSA,1,1,,,,,,,,,,,,,0.0*5C
$GLGSA,A,3,,,,,,,,,,,,,,,,1.2,*2D
$GNGSA,A,3,14,22,25,29,31,32,,,,,,,3.0,1.2,2.8*2C
$GPGGA,074023.000,3114.8857,N,12135.2453,E,1,06,1.2,174.7,M,8.3,M,,*64
$GPGLL,3114.8857,N,12135.2453,E,074023.000,A,A*5A
$GPRMC,074023.000,A,3114.8857,N,12135.2453,E,0.0,0.0,250215,,,A*6C
$GPGSA,A,3,14,22,25,29,31,32,,,,,,,,1.2,*3B
$GPVTG,0.0,T,,M,0.0,N,0.0,K,A*0D
$GPGSV,3,1,09,08,00,000,42,12,11,038,42,14,72,050,48,18,05,165,30*76
$GPGSV,3,2,09,22,35,194,42,25,48,044,48,29,24,104,43,31,52,308,49*76
$GPGSV,3,3,09,32,37,297,45*48
$GLGSV,3,1,09,78,21,036,37,82,08,100,33,70,19,328,33,80,30,264,44*6D
$GLGSV,3,2,09,79,53,346,45,69,70,283,42,88,09,061,33,81,08,110,34*6A
$GLGSV,3,3,09,68,42,173,42*57
$QZGSV,1,1,,,,,,,,,,,,,0.0*4B
$QZGSA,1,1,,,,,,,,,,,,,0.0*5C
$GLGSA,A,3,,,,,,,,,,,,,,,,1.2,*2D
$GNGSA,A,3,14,22,25,29,31,32,,,,,,,3.0,1.2,2.8*2C
$GPGGA,074024.000,3114.8857,N,12135.2453,E,1,06,1.2,174.7,M,8.3,M,,*63
$GPGLL,3114.8857,N,12135.2453,E,074024.000,A,A*5D
$GPRMC,074024.000,A,3114.8857,N,12135.2453,E,0.0,0.0,250215,,,A*6B
$GPGSA,A,3,14,22,25,29,31,32,,,,,,,,1.2,*3B
$GPVTG,0.0,T,,M,0.0,N,0.0,K,A*0D
$GPGSV,3,1,09,08,00,000,42,12,11,038,42,14,72,050,48,18,05,165,30*76
$GPGSV,3,2,09,22,35,194,42,25,48,044,48,29,24,104,43,31,52,308,49*76
$GPGSV,3,3,09,32,37,297,45*48
$GLGSV,3,1,09,78,21,036,36,82,08,100,33,70,19,328,33,80,30,264,44*6C
$GLGSV,3,2,09,79,53,346,45,69,70,283,42,88,09,061,33,81,08,110,35*6B
$GLGSV,3,3,09,68,42,173,42*57
$QZGSV,1,1,,,,,,,,,,,,,0.0*4B
$QZGSA,1,1,,,,,,,,,,,,,0.0*5C
$GLGSA,A,3,,,,,,,,,,,,,,,,1.2,*2D
$GNGSA,A,3,14,22,25,29,31,32,,,,,,,3.0,1.2,2.8*2C
$GPGGA,074025.000,3114.8857,N,12135.2453,E,1,06,1.2,174.7,M,8.3,M,,*62
$GPGLL,3114.8857,N,12135.2453,E,074025.000,A,A*5C
$GPRMC,074025.000,A,3114.8857,N,12135.2453,E,0.0,0.0,250215,,,A*6A
$GPGSA,A,3,14,22,25,29,31,32,,,,,,,,1.2,*3B
$GPVTG,0.0,T,,M,0.0,N,0.0,K,A*0D
$GPGSV,3,1,09,08,00,000,42,12,11,038,42,14,72,050,48,18,05,165,30*76
$GPGSV,3,2,09,22,35,194,42,25,48,044,48,29,24,104,43,31,52,308,49*76
$GPGSV,3,3,09,32,37,297,45*48
$GLGSV,3,1,09,78,21,036,36,82,08,100,33,70,19,328,33,80,30,264,44*6C
$GLGSV,3,2,09,79,53,346,45,69,70,283,42,88,09,061,33,81,08,110,34*6A
$GLGSV,3,3,09,68,42,173,42*57
$QZGSV,1,1,,,,,,,,,,,,,0.0*4B
$QZGSA,1,1,,,,,,,,,,,,,0.0*5C
$GLGSA,A,3,,,,,,,,,,,,,,,,1.2,*2D
$GNGSA,A,3,14,22,25,29,31,32,,,,,,,3.0,1.2,2.8*2C
$GPGGA,074026.000,3114.8857,N,12135.2453,E,1,06,1.2,174.7,M,8.3,M,,*61
$GPGLL,3114.8857,N,12135.2453,E,074026.000,A,A*5F
$GPRMC,074026.000,A,3114.8857,N,12135.2453,E,0.0,0.0,250215,,,A*69
$GPGSA,A,3,14,22,25,29,31,32,,,,,,,,1.2,*3B
$GPVTG,0.0,T,,M,0.0,N,0.0,K,A*0D
$GPGSV,3,1,09,08,00,000,42,12,11,038,42,14,72,050,48,18,05,165,30*76
$GPGSV,3,2,09,22,35,194,42,25,48,044,48,29,24,104,44,31,52,308,49*71
$GPGSV,3,3,09,32,37,297,45*48
$GLGSV,3,1,09,78,21,036,36,82,08,100,33,70,19,328,33,80,30,264,44*6C
$GLGSV,3,2,09,79,53,346,45,69,70,283,42,88,09,061,33,81,08,110,34*6A
$GLGSV,3,3,09,68,42,173,42*57
$QZGSV,1,1,,,,,,,,,,,,,0.0*4B
$QZGSA,1,1,,,,,,,,,,,,,0.0*5C
$GLGSA,A,3,,,,,,,,,,,,,,,,1.2,*2D
$GNGSA,A,3,14,22,25,29,31,32,,,,,,,3.0,1.2,2.8*2C
$GPGGA,074027.000,3114.8857,N,12135.2453,E,1,06,1.2,174.7,M,8.3,M,,*60
$GPGLL,3114.8857,N,12135.2453,E,074027.000,A,A*5E
$GPRMC,074027.000,A,3114.8857,N,12135.2453,E,0.0,0.0,250215,,,A*68
$GPGSA,A,3,14,22,25,29,31,32,,,,,,,,1.2,*3B
$GPVTG,0.0,T,,M,0.0,N,0.0,K,A*0D
$GPGSV,3,1,09,08,00,000,42,12,11,038,42,14,72,050,48,18,05,165,30*76
$GPGSV,3,2,09,22,35,194,42,25,48,044,48,29,24,104,44,31,52,308,49*71
$GPGSV,3,3,09,32,37,297,45*48
$GLGSV,3,1,09,78,21,036,36,82,08,100,33,70,19,328,33,80,30,264,44*6C
$GLGSV,3,2,09,79,53,346,45,69,70,283,42,88,09,061,33,81,08,110,34*6A
$GLGSV,3,3,09,68,42,173,42*57
$QZGSV,1,1,,,,,,,,,,,,,0.0*4B
$QZGSA,1,1,,,,,,,,,,,,,0.0*5C
$GLGSA,A,3,,,,,,,,,,,,,,,,1.2,*2D
$GNGSA,A,3,14,22,25,29,31,32,,,,,,,3.0,1.2,2.8*2C
$GPGGA,074028.000,3114.8857,N,12135.2453,E,1,06,1.2,174.7,M,8.3,M,,*6F
$GPGLL,3114.8857,N,12135.2453,E,074028.000,A,A*51
$GPRMC,074028.000,A,3114.8857,N,12135.2453,E,0.0,0.0,250215,,,A*67
$GPGSA,A,3,14,22,25,29,31,32,,,,,,,,1.2,*3B
$GPVTG,0.0,T,,M,0.0,N,0.0,K,A*0D
$GPGSV,3,1,09,08,00,000,42,12,11,038,42,14,72,050,48,18,05,165,30*76
$GPGSV,3,2,09,22,35,194,42,25,48,044,48,29,24,104,44,31,52,308,48*70
$GPGSV,3,3,09,32,37,297,45*48
$GLGSV,3,1,09,78,21,036,36,82,08,100,33,70,19,328,33,80,30,264,44*6C
$GLGSV,3,2,09,79,53,346,45,69,70,283,42,88,09,061,33,81,08,110,34*6A
$GLGSV,3,3,09,68,42,173,42*57
$QZGSV,1,1,,,,,,,,,,,,,0.0*4B
$QZGSA,1,1,,,,,,,,,,,,,0.0*5C
$GLGSA,A,3,,,,,,,,,,,,,,,,1.2,*2D
$GNGSA,A,3,14,22,25,29,31,32,,,,,,,3.0,1.2,2.8*2C
$GPGGA,074029.000,3114.8857,N,12135.2453,E,1,06,1.2,174.7,M,8.3,M,,*6E
$GPGLL,3114.8857,N,12135.2453,E,074029.000,A,A*50
$GPRMC,074029.000,A,3114.8857,N,12135.2453,E,0.0,0.0,250215,,,A*66
$GPGSA,A,3,14,22,25,29,31,32,,,,,,,,1.2,*3B
$GPVTG,0.0,T,,M,0.0,N,0.0,K,A*0D
$GPGSV,3,1,09,08,00,000,42,12,11,038,42,14,72,050,48,18,05,165,30*76
$GPGSV,3,2,09,22,35,194,42,25,48,044,48,29,24,104,44,31,52,308,48*70
$GPGSV,3,3,09,32,37,297,45*48
$GLGSV,3,1,09,78,21,036,35,82,08,100,33,70,19,328,33,80,30,264,45*6E
$GLGSV,3,2,09,79,53,346,45,69,70,283,42,88,09,061,33,81,08,110,35*6B
$GLGSV,3,3,09,68,42,173,42*57
$QZGSV,1,1,,,,,,,,,,,,,0.0*4B
$QZGSA,1,1,,,,,,,,,,,,,0.0*5C
$GLGSA,A,3,,,,,,,,,,,,,,,,1.2,*2D
$GNGSA,A,3,14,22,25,29,31,32,,,,,,,3.0,1.2,2.8*2C
$GPGGA,074030.000,3114.8857,N,12135.2453,E,1,06,1.2,174.7,M,8.3,M,,*66
$GPGLL,3114.8857,N,12135.2453,E,074030.000,A,A*58
$GPRMC,074030.000,A,3114.8857,N,12135.2453,E,0.0,0.0,250215,,,A*6E
$GPGSA,A,3,14,22,25,29,31,32,,,,,,,,1.2,*3B
$GPVTG,0.0,T,,M,0.0,N,0.0,K,A*0D
$GPGSV,3,1,09,08,00,000,42,12,11,038,42,14,72,050,48,18,05,165,30*76
$GPGSV,3,2,09,22,35,194,42,25,48,044,48,29,24,104,44,31,52,308,48*70
$GPGSV,3,3,09,32,37,297,45*48
$GLGSV,3,1,09,78,21,036,35,82,08,100,33,70,19,328,33,80,30,264,45*6E
$GLGSV,3,2,09,79,53,346,45,69,70,283,42,88,09,061,32,81,08,110,35*6A
$GLGSV,3,3,09,68,42,173,42*57
$QZGSV,1,1,,,,,,,,,,,,,0.0*4B
$QZGSA,1,1,,,,,,,,,,,,,0.0*5C
$GLGSA,A,3,,,,,,,,,,,,,,,,1.2,*2D
$GNGSA,A,3,14,22,25,29,31,32,,,,,,,3.0,1.2,2.8*2C
$GPGGA,074031.000,3114.8857,N,12135.2453,E,1,06,1.2,174.7,M,8.3,M,,*67
$GPGLL,3114.8857,N,12135.2453,E,074031.000,A,A*59
$GPRMC,074031.000,A,3114.8857,N,12135.2453,E,0.0,0.0,250215,,,A*6F
$GPGSA,A,3,14,22,25,29,31,32,,,,,,,,1.2,*3B
$GPVTG,0.0,T,,M,0.0,N,0.0,K,A*0D
$GPGSV,3,1,09,08,00,000,42,12,11,038,42,14,72,050,48,18,05,165,30*76
$GPGSV,3,2,09,22,35,194,41,25,48,044,48,29,24,104,44,31,52,308,48*73
$GPGSV,3,3,09,32,37,297,45*48
$GLGSV,3,1,09,78,21,036,35,82,08,100,33,70,19,328,33,80,30,264,45*6E
$GLGSV,3,2,09,79,53,346,45,69,70,283,42,88,09,061,32,81,08,110,34*6B
$GLGSV,3,3,09,68,42,173,42*57
$QZGSV,1,1,,,,,,,,,,,,,0.0*4B
$QZGSA,1,1,,,,,,,,,,,,,0.0*5C
$GLGSA,A,3,,,,,,,,,,,,,,,,1.2,*2D
$GNGSA,A,3,14,22,25,29,31,32,,,,,,,3.0,1.2,2.8*2C
$GPGGA,074032.000,3114.8857,N,12135.2453,E,1,06,1.2,174.7,M,8.3,M,,*64
$GPGLL,3114.8857,N,12135.2453,E,074032.000,A,A*5A
$GPRMC,074032.000,A,3114.8857,N,12135.2453,E,0.0,0.0,250215,,,A*6C
$GPGSA,A,3,12,14,22,25,29,31,32,,,,,,,1.0,*3A
$GPVTG,0.0,T,,M,0.0,N,0.0,K,A*0D
$GPGSV,3,1,09,08,00,000,42,12,11,038,42,14,72,050,48,18,05,165,30*76
$GPGSV,3,2,09,22,35,194,41,25,48,044,48,29,24,104,44,31,52,308,48*73
$GPGSV,3,3,09,32,37,297,46*4B
$GLGSV,3,1,09,78,21,036,35,82,08,100,33,70,19,328,33,80,30,264,45*6E
$GLGSV,3,2,09,79,53,346,45,69,70,283,42,88,09,061,32,81,08,110,34*6B
$GLGSV,3,3,09,68,42,173,42*57
$QZGSV,1,1,,,,,,,,,,,,,0.0*4B
$QZGSA,1,1,,,,,,,,,,,,,0.0*5C
$GLGSA,A,3,,,,,,,,,,,,,,,,1.0,*2F
$GNGSA,A,3,12,14,22,25,29,31,32,,,,,,2.0,1.0,1.6*21
$GPGGA,074033.000,3114.8857,N,12135.2453,E,1,07,1.0,174.7,M,8.3,M,,*66
$GPGLL,3114.8857,N,12135.2453,E,074033.000,A,A*5B
$GPRMC,074033.000,A,3114.8857,N,12135.2453,E,0.0,0.0,250215,,,A*6D
$GPGSA,A,3,12,14,22,25,29,31,32,,,,,,,0.8,*33
$GPVTG,0.0,T,,M,0.0,N,0.0,K,A*0D
$GPGSV,3,1,09,08,00,000,42,12,11,038,42,14,72,050,48,18,05,165,30*76
$GPGSV,3,2,09,22,35,194,41,25,48,044,48,29,24,104,44,31,52,308,48*73
$GPGSV,3,3,09,32,37,297,46*4B
$GLGSV,3,1,09,78,21,036,33,82,08,100,33,70,19,328,34,80,30,264,45*6F
$GLGSV,3,2,09,79,53,346,44,69,70,283,42,88,09,061,32,81,08,110,34*6A
$GLGSV,3,3,09,68,42,173,42*57
$QZGSV,1,1,,,,,,,,,,,,,0.0*4B
$QZGSA,1,1,,,,,,,,,,,,,0.0*5C
$GLGSA,A,3,78,80,81,,,,,,,,,,,,,0.8,*28
$GNGSA,A,3,12,14,22,25,29,31,32,,,,,,1.6,0.8,1.4*2F
$GNGSA,A,3,78,80,81,,,,,,,,,,1.6,0.8,1.4*28
$GPGGA,074034.000,3114.8857,N,12135.2453,E,1,10,0.8,174.7,M,8.3,M,,*6E
$GPGLL,3114.8857,N,12135.2453,E,074034.000,A,A*5C
$GPRMC,074034.000,A,3114.8857,N,12135.2453,E,0.0,0.0,250215,,,A*6A
$GPVTG,0.0,T,,M,0.0,N,0.0,K,A*0D
$GPGSV,3,1,09,08,00,000,42,12,10,038,42,14,72,050,48,18,05,165,30*77
$GPGSV,3,2,09,22,35,194,41,25,47,044,48,29,24,104,44,31,52,309,48*7D
$GPGSV,3,3,09,32,37,297,46*4B
$GLGSV,3,1,09,78,20,037,31,82,09,100,33,70,20,328,34,80,30,265,45*67
$GLGSV,3,2,09,79,53,347,44,69,70,281,42,88,09,061,32,81,08,112,34*6B
$GLGSV,3,3,09,68,41,173,41*57
$QZGSV,1,1,,,,,,,,,,,,,0.0*4B
$QZGSA,1,1,,,,,,,,,,,,,0.0*5C
$GLGSA,A,3,78,80,81,,,,,,,,,,,,,0.8,*28
$GNGSA,A,3,12,14,22,25,29,31,32,,,,,,1.6,0.8,1.4*2F
$GNGSA,A,3,78,80,81,,,,,,,,,,1.6,0.8,1.4*28
$GPGGA,074035.000,3114.8857,N,12135.2453,E,1,10,0.8,174.7,M,8.3,M,,*6F
$GPGLL,3114.8857,N,12135.2453,E,074035.000,A,A*5D
$GPRMC,074035.000,A,3114.8857,N,12135.2453,E,0.0,0.0,250215,,,A*6B
$GPVTG,0.0,T,,M,0.0,N,0.0,K,A*0D
$GPGSV,3,1,09,08,00,000,42,12,10,038,42,14,72,050,48,18,05,165,30*77
$GPGSV,3,2,09,22,35,194,41,25,47,044,48,29,24,104,44,31,52,309,48*7D
$GPGSV,3,3,09,32,37,297,46*4B
$GLGSV,3,1,09,78,20,037,32,82,09,100,33,70,20,328,34,80,30,265,45*64
$GLGSV,3,2,09,79,53,347,45,69,70,281,42,88,09,061,32,81,08,112,34*6A
$GLGSV,3,3,09,68,41,173,41*57
$QZGSV,1,1,,,,,,,,,,,,,0.0*4B
$QZGSA,1,1,,,,,,,,,,,,,0.0*5C
$GLGSA,A,3,68,69,70,78,80,81,,,,,,,,,,0.6,*20
$GNGSA,A,3,12,14,22,25,29,31,32,,,,,,1.4,0.6,1.2*25
$GNGSA,A,3,68,69,70,78,80,81,,,,,,,1.4,0.6,1.2*24
$GPGGA,074036.000,3114.8857,N,12135.2453,E,1,13,0.6,174.7,M,8.3,M,,*61
$GPGLL,3114.8857,N,12135.2453,E,074036.000,A,A*5E
$GPRMC,074036.000,A,3114.8857,N,12135.2453,E,0.0,0.0,250215,,,A*68
$GPVTG,0.0,T,,M,0.0,N,0.0,K,A*0D
$GPGSV,3,1,09,08,00,000,42,12,10,038,42,14,72,050,48,18,05,165,30*77
$GPGSV,3,2,09,22,35,194,41,25,47,044,48,29,24,104,44,31,52,309,48*7D
$GPGSV,3,3,09,32,37,297,46*4B
$GLGSV,3,1,09,78,20,037,31,82,09,100,33,70,20,328,34,80,30,265,45*67
$GLGSV,3,2,09,79,53,347,45,69,70,281,42,88,09,061,32,81,08,112,34*6A
$GLGSV,3,3,09,68,41,173,41*57
$QZGSV,1,1,,,,,,,,,,,,,0.0*4B
$QZGSA,1,1,,,,,,,,,,,,,0.0*5C
$GLGSA,A,3,68,69,70,78,80,81,,,,,,,,,,0.6,*20
$GNGSA,A,3,12,14,22,25,29,31,32,,,,,,1.4,0.6,1.2*25
$GNGSA,A,3,68,69,70,78,80,81,,,,,,,1.4,0.6,1.2*24
$GPGGA,074037.000,3114.8857,N,12135.2453,E,1,13,0.6,174.7,M,8.3,M,,*60
$GPGLL,3114.8857,N,12135.2453,E,074037.000,A,A*5F
$GPRMC,074037.000,A,3114.8857,N,12135.2453,E,0.0,0.0,250215,,,A*69
$GPVTG,0.0,T,,M,0.0,N,0.0,K,A*0D
$GPGSV,3,1,09,08,00,000,42,12,10,038,42,14,72,050,48,18,05,165,30*77
$GPGSV,3,2,09,22,35,194,41,25,47,044,48,29,24,104,44,31,52,309,48*7D
$GPGSV,3,3,09,32,37,297,46*4B
$GLGSV,3,1,09,78,20,037,31,82,09,100,33,70,20,328,34,80,30,265,45*67
$GLGSV,3,2,09,79,53,347,45,69,70,281,42,88,09,061,32,81,08,112,34*6A
$GLGSV,3,3,09,68,41,173,41*57
$QZGSV,1,1,,,,,,,,,,,,,0.0*4B
$QZGSA,1,1,,,,,,,,,,,,,0.0*5C
$GLGSA,A,3,68,69,70,78,80,81,88,,,,,,,,,0.6,*20
$GNGSA,A,3,12,14,22,25,29,31,32,,,,,,1.4,0.6,1.0*27
$GNGSA,A,3,68,69,70,78,80,81,88,,,,,,1.4,0.6,1.0*26
$GPGGA,074038.000,3114.8857,N,12135.2453,E,1,14,0.6,174.7,M,8.3,M,,*68
$GPGLL,3114.8857,N,12135.2453,E,074038.000,A,A*50
$GPRMC,074038.000,A,3114.8857,N,12135.2453,E,0.0,0.0,250215,,,A*66
$GPVTG,0.0,T,,M,0.0,N,0.0,K,A*0D
$GPGSV,3,1,09,08,00,000,42,12,10,038,42,14,72,050,48,18,05,165,30*77
$GPGSV,3,2,09,22,35,194,40,25,47,044,48,29,24,104,44,31,52,309,48*7C
$GPGSV,3,3,09,32,37,297,46*4B
$GLGSV,3,1,09,78,20,037,31,82,09,100,33,70,20,328,34,80,30,265,45*67
$GLGSV,3,2,09,79,53,347,45,69,70,281,42,88,09,061,33,81,08,112,34*6B
$GLGSV,3,3,09,68,41,173,41*57
$QZGSV,1,1,,,,,,,,,,,,,0.0*4B
$QZGSA,1,1,,,,,,,,,,,,,0.0*5C
$GLGSA,A,3,68,69,70,78,80,81,88,,,,,,,,,0.6,*20
$GNGSA,A,3,12,14,22,25,29,31,32,,,,,,1.4,0.6,1.0*27
$GNGSA,A,3,68,69,70,78,80,81,88,,,,,,1.4,0.6,1.0*26
$GPGGA,074039.000,3114.8857,N,12135.2453,E,1,14,0.6,174.7,M,8.3,M,,*69
$GPGLL,3114.8857,N,12135.2453,E,074039.000,A,A*51
$GPRMC,074039.000,A,3114.8857,N,12135.2453,E,0.0,0.0,250215,,,A*67
$GPVTG,0.0,T,,M,0.0,N,0.0,K,A*0D
$GPGSV,3,1,09,08,00,000,42,12,10,038,42,14,72,050,48,18,05,165,30*77
$GPGSV,3,2,09,22,35,194,40,25,47,044,47,29,24,104,44,31,52,309,48*73
$GPGSV,3,3,09,32,37,297,46*4B
$GLGSV,3,1,09,78,20,037,30,82,09,100,33,70,20,328,34,80,30,265,45*66
$GLGSV,3,2,09,79,53,347,45,69,70,281,42,88,09,061,33,81,08,112,34*6B
$GLGSV,3,3,09,68,41,173,41*57
$QZGSV,1,1,,,,,,,,,,,,,0.0*4B
$QZGSA,1,1,,,,,,,,,,,,,0.0*5C
$GLGSA,A,3,68,69,70,78,80,81,88,,,,,,,,,0.6,*20
$GNGSA,A,3,12,14,22,25,29,31,32,,,,,,1.4,0.6,1.0*27
$GNGSA,A,3,68,69,70,78,80,81,88,,,,,,1.4,0.6,1.0*26
$GPGGA,074040.000,3114.8857,N,12135.2453,E,1,14,0.6,174.7,M,8.3,M,,*67
$GPGLL,3114.8857,N,12135.2453,E,074040.000,A,A*5F
$GPRMC,074040.000,A,3114.8857,N,12135.2453,E,0.0,0.0,250215,,,A*69
$GPVTG,0.0,T,,M,0.0,N,0.0,K,A*0D
$GPGSV,3,1,09,08,00,000,42,12,10,038,42,14,72,050,48,18,05,165,30*77
$GPGSV,3,2,09,22,35,194,40,25,47,044,47,29,24,104,44,31,52,309,48*73
$GPGSV,3,3,09,32,37,297,46*4B
$GLGSV,3,1,09,78,20,037,30,82,09,100,33,70,20,328,34,80,30,265,45*66
$GLGSV,3,2,09,79,53,347,45,69,70,281,42,88,09,061,33,81,08,112,34*6B
$GLGSV,3,3,09,68,41,173,41*57
$QZGSV,1,1,,,,,,,,,,,,,0.0*4B
$QZGSA,1,1,,,,,,,,,,,,,0.0*5C
$GLGSA,A,3,68,69,70,78,80,81,88,,,,,,,,,0.6,*20
$GNGSA,A,3,12,14,22,25,29,31,32,,,,,,1.4,0.6,1.0*27
$GNGSA,A,3,68,69,70,78,80,81,88,,,,,,1.4,0.6,1.0*26
$GPGGA,074041.000,3114.8857,N,12135.2453,E,1,14,0.6,174.7,M,8.3,M,,*66
$GPGLL,3114.8857,N,12135.2453,E,074041.000,A,A*5E
$GPRMC,074041.000,A,3114.8857,N,12135.2453,E,0.0,0.0,250215,,,A*68
$GPVTG,0.0,T,,M,0.0,N,0.0,K,A*0D
$GPGSV,3,1,09,08,00,000,42,12,10,038,42,14,72,050,48,18,05,165,30*77
$GPGSV,3,2,09,22,35,194,40,25,47,044,47,29,24,104,44,31,52,309,48*73
$GPGSV,3,3,09,32,37,297,46*4B
$GLGSV,3,1,09,78,20,037,30,82,09,100,33,70,20,328,34,80,30,265,45*66
$GLGSV,3,2,09,79,53,347,45,69,70,281,42,88,09,061,33,81,08,112,34*6B
$GLGSV,3,3,09,68,41,173,41*57
$QZGSV,1,1,,,,,,,,,,,,,0.0*4B
$QZGSA,1,1,,,,,,,,,,,,,0.0*5C
$GLGSA,A,3,68,69,70,78,80,81,88,,,,,,,,,0.6,*20
$GNGSA,A,3,12,14,22,25,29,31,32,,,,,,1.4,0.6,1.0*27
$GNGSA,A,3,68,69,70,78,80,81,88,,,,,,1.4,0.6,1.0*26
$GPGGA,074042.000,3114.8857,N,12135.2453,E,1,14,0.6,174.7,M,8.3,M,,*65
$GPGLL,3114.8857,N,12135.2453,E,074042.000,A,A*5D
$GPRMC,074042.000,A,3114.8857,N,12135.2453,E,0.0,0.0,250215,,,A*6B
$GPVTG,0.0,T,,M,0.0,N,0.0,K,A*0D
$GPGSV,3,1,09,08,00,000,42,12,10,038,42,14,72,050,48,18,05,165,30*77
$GPGSV,3,2,09,22,35,194,40,25,47,044,47,29,24,104,44,31,52,309,48*73
$GPGSV,3,3,09,32,37,297,46*4B
$GLGSV,3,1,09,78,20,037,30,82,09,100,33,70,20,328,34,80,30,265,45*66
$GLGSV,3,2,09,79,53,347,45,69,70,281,42,88,09,061,34,81,08,112,34*6C
$GLGSV,3,3,09,68,41,173,41*57
$QZGSV,1,1,,,,,,,,,,,,,0.0*4B
$QZGSA,1,1,,,,,,,,,,,,,0.0*5C
$GLGSA,A,3,68,69,70,78,80,81,88,,,,,,,,,0.6,*20
$GNGSA,A,3,12,14,22,25,29,31,32,,,,,,1.4,0.6,1.0*27
$GNGSA,A,3,68,69,70,78,80,81,88,,,,,,1.4,0.6,1.0*26
$GPGGA,074043.000,3114.8857,N,12135.2453,E,1,14,0.6,174.7,M,8.3,M,,*64
$GPGLL,3114.8857,N,12135.2453,E,074043.000,A,A*5C
$GPRMC,074043.000,A,3114.8857,N,12135.2453,E,0.0,0.0,250215,,,A*6A
$GPVTG,0.0,T,,M,0.0,N,0.0,K,A*0D
$GPGSV,3,1,09,08,00,000,42,12,10,038,42,14,72,050,48,18,05,165,30*77
$GPGSV,3,2,09,22,35,194,39,25,47,044,47,29,24,104,44,31,52,309,48*7D
$GPGSV,3,3,09,32,37,297,46*4B
$GLGSV,3,1,09,78,20,037,30,82,09,100,33,70,20,328,34,80,30,265,45*66
$GLGSV,3,2,09,79,53,347,45,69,70,281,42,88,09,061,34,81,08,112,34*6C
$GLGSV,3,3,09,68,41,173,41*57
$QZGSV,1,1,,,,,,,,,,,,,0.0*4B
$QZGSA,1,1,,,,,,,,,,,,,0.0*5C
$GLGSA,A,3,68,69,70,78,80,81,88,,,,,,,,,0.6,*20
$GNGSA,A,3,12,14,22,25,29,31,32,,,,,,1.4,0.6,1.0*27
$GNGSA,A,3,68,69,70,78,80,81,88,,,,,,1.4,0.6,1.0*26
$GPGGA,074044.000,3114.8857,N,12135.2453,E,1,14,0.6,174.7,M,8.3,M,,*63
$GPGLL,3114.8857,N,12135.2453,E,074044.000,A,A*5B
$GPRMC,074044.000,A,3114.8857,N,12135.2453,E,0.0,0.0,250215,,,A*6D
$GPVTG,0.0,T,,M,0.0,N,0.0,K,A*0D
$GPGSV,3,1,09,08,00,000,43,12,10,038,42,14,72,050,48,18,05,165,30*76
$GPGSV,3,2,09,22,35,194,39,25,47,044,47,29,24,104,44,31,52,309,48*7D
$GPGSV,3,3,09,32,37,297,46*4B
$GLGSV,3,1,09,78,20,037,30,82,09,100,33,70,20,328,34,80,30,265,45*66
$GLGSV,3,2,09,79,53,347,45,69,70,281,42,88,09,061,34,81,08,112,34*6C
$GLGSV,3,3,09,68,41,173,41*57
$QZGSV,1,1,,,,,,,,,,,,,0.0*4B
$QZGSA,1,1,,,,,,,,,,,,,0.0*5C
$GLGSA,A,3,68,69,70,78,80,81,88,,,,,,,,,0.6,*20
$GNGSA,A,3,12,14,22,25,29,31,32,,,,,,1.4,0.6,1.0*27
$GNGSA,A,3,68,69,70,78,80,81,88,,,,,,1.4,0.6,1.0*26
$GPGGA,074045.000,3114.8857,N,12135.2453,E,1,14,0.6,174.7,M,8.3,M,,*62
$GPGLL,3114.8857,N,12135.2453,E,074045.000,A,A*5A
$GPRMC,074045.000,A,3114.8857,N,12135.2453,E,0.0,0.0,250215,,,A*6C
$GPVTG,0.0,T,,M,0.0,N,0.0,K,A*0D
$GPGSV,3,1,09,08,00,000,43,12,10,038,42,14,72,050,48,18,05,165,30*76
$GPGSV,3,2,09,22,35,194,39,25,47,044,47,29,24,104,44,31,52,309,48*7D
$GPGSV,3,3,09,32,37,297,46*4B
$GLGSV,3,1,09,78,20,037,30,82,09,100,33,70,20,328,34,80,30,265,45*66
$GLGSV,3,2,09,79,53,347,45,69,70,281,42,88,09,061,34,81,08,112,34*6C
$GLGSV,3,3,09,68,41,173,41*57
$QZGSV,1,1,,,,,,,,,,,,,0.0*4B
$QZGSA,1,1,,,,,,,,,,,,,0.0*5C
$GLGSA,A,3,68,69,70,78,80,81,88,,,,,,,,,0.6,*20
$GNGSA,A,3,12,14,22,25,29,31,32,,,,,,1.4,0.6,1.0*27
$GNGSA,A,3,68,69,70,78,80,81,88,,,,,,1.4,0.6,1.0*26
$GPGGA,074046.000,3114.8857,N,12135.2453,E,1,14,0.6,174.7,M,8.3,M,,*61
$GPGLL,3114.8857,N,12135.2453,E,074046.000,A,A*59
$GPRMC,074046.000,A,3114.8857,N,12135.2453,E,0.0,0.0,250215,,,A*6F
$GPVTG,0.0,T,,M,0.0,N,0.0,K,A*0D
$GPGSV,3,1,09,08,00,000,43,12,10,038,42,14,72,050,48,18,05,165,29*7E
$GPGSV,3,2,09,22,35,194,39,25,47,044,47,29,24,104,44,31,52,309,48*7D
$GPGSV,3,3,09,32,37,297,46*4B
$GLGSV,3,1,09,78,20,037,30,82,09,100,33,70,20,328,34,80,30,265,45*66
$GLGSV,3,2,09,79,53,347,45,69,70,281,42,88,09,061,34,81,08,112,34*6C
$GLGSV,3,3,09,68,41,173,41*57
$QZGSV,1,1,,,,,,,,,,,,,0.0*4B
$QZGSA,1,1,,,,,,,,,,,,,0.0*5C
$GLGSA,A,3,68,69,70,78,80,81,88,,,,,,,,,0.6,*20
$GNGSA,A,3,12,14,22,25,29,31,32,,,,,,1.4,0.6,1.0*27
$GNGSA,A,3,68,69,70,78,80,81,88,,,,,,1.4,0.6,1.0*26
$GPGGA,074047.000,3114.8857,N,12135.2453,E,1,14,0.6,174.7,M,8.3,M,,*60
$GPGLL,3114.8857,N,12135.2453,E,074047.000,A,A*58
$GPRMC,074047.000,A,3114.8857,N,12135.2453,E,0.0,0.0,250215,,,A*6E
$GPVTG,0.0,T,,M,0.0,N,0.0,K,A*0D
$GPGSV,3,1,09,08,00,000,43,12,10,038,42,14,72,050,48,18,05,165,29*7E
$GPGSV,3,2,09,22,35,194,39,25,47,044,47,29,24,104,44,31,52,309,48*7D
$GPGSV,3,3,09,32,37,297,46*4B
$GLGSV,3,1,09,78,20,037,23,82,09,100,33,70,20,328,34,80,30,265,45*64
$GLGSV,3,2,09,79,53,347,45,69,70,281,42,88,09,061,34,81,08,112,34*6C
$GLGSV,3,3,09,68,41,173,41*57
$QZGSV,1,1,,,,,,,,,,,,,0.0*4B
$QZGSA,1,1,,,,,,,,,,,,,0.0*5C
$GLGSA,A,3,68,69,70,78,80,81,88,,,,,,,,,0.6,*20
$GNGSA,A,3,12,14,22,25,29,31,32,,,,,,1.4,0.6,1.0*27
$GNGSA,A,3,68,69,70,78,80,81,88,,,,,,1.4,0.6,1.0*26
$GPGGA,074048.000,3114.8857,N,12135.2453,E,1,14,0.6,174.7,M,8.3,M,,*6F
$GPGLL,3114.8857,N,12135.2453,E,074048.000,A,A*57
$GPRMC,074048.000,A,3114.8857,N,12135.2453,E,0.0,0.0,250215,,,A*61
$GPVTG,0.0,T,,M,0.0,N,0.0,K,A*0D
$GPGSV,3,1,09,08,00,000,43,12,10,038,42,14,72,050,48,18,05,165,29*7E
$GPGSV,3,2,09,22,35,194,38,25,47,044,47,29,24,104,44,31,52,309,48*7C
$GPGSV,3,3,09,32,37,297,46*4B
$GLGSV,3,1,09,78,20,037,23,82,09,100,33,70,20,328,34,80,30,265,45*64
$GLGSV,3,2,09,79,53,347,45,69,70,281,42,88,09,061,33,81,08,112,34*6B
$GLGSV,3,3,09,68,41,173,41*57
$QZGSV,1,1,,,,,,,,,,,,,0.0*4B
$QZGSA,1,1,,,,,,,,,,,,,0.0*5C
$GLGSA,A,3,68,69,70,80,81,88,,,,,,,,,,0.6,*2F
$GNGSA,A,3,12,14,22,25,29,31,32,,,,,,1.4,0.6,1.0*27
$GNGSA,A,3,68,69,70,80,81,88,,,,,,,1.4,0.6,1.0*29
$GPGGA,074049.000,3114.8857,N,12135.2453,E,1,13,0.6,174.7,M,8.3,M,,*69
$GPGLL,3114.8857,N,12135.2453,E,074049.000,A,A*56
$GPRMC,074049.000,A,3114.8857,N,12135.2453,E,0.0,0.0,250215,,,A*60
$GPVTG,0.0,T,,M,0.0,N,0.0,K,A*0D
$GPGSV,3,1,09,08,00,000,43,12,10,038,42,14,72,050,48,18,05,165,29*7E
$GPGSV,3,2,09,22,35,194,38,25,47,044,47,29,24,104,44,31,52,309,48*7C
$GPGSV,3,3,09,32,37,297,46*4B
$GLGSV,3,1,09,78,20,037,24,82,09,100,33,70,20,328,34,80,30,265,45*63
$GLGSV,3,2,09,79,53,347,45,69,70,281,42,88,09,061,29,81,08,112,34*60
$GLGSV,3,3,09,68,41,173,41*57
$QZGSV,1,1,,,,,,,,,,,,,0.0*4B
$QZGSA,1,1,,,,,,,,,,,,,0.0*5C
$GLGSA,A,3,68,69,70,78,80,81,88,,,,,,,,,0.6,*20
$GNGSA,A,3,12,14,22,25,29,31,32,,,,,,1.4,0.6,1.0*27
$GNGSA,A,3,68,69,70,78,80,81,88,,,,,,1.4,0.6,1.0*26
$GPGGA,074050.000,3114.8857,N,12135.2453,E,1,14,0.6,174.7,M,8.3,M,,*66
$GPGLL,3114.8857,N,12135.2453,E,074050.000,A,A*5E
$GPRMC,074050.000,A,3114.8857,N,12135.2453,E,0.0,0.0,250215,,,A*68
$GPVTG,0.0,T,,M,0.0,N,0.0,K,A*0D
$GPGSV,3,1,09,08,00,000,43,12,10,038,42,14,72,050,48,18,05,165,29*7E
$GPGSV,3,2,09,22,35,194,38,25,47,044,47,29,24,104,44,31,52,309,48*7C
$GPGSV,3,3,09,32,37,297,46*4B
$GLGSV,3,1,09,78,20,037,25,82,09,100,33,70,20,328,34,80,30,265,45*62
$GLGSV,3,2,09,79,53,347,45,69,70,281,42,88,09,061,26,81,08,112,35*6E
$GLGSV,3,3,09,68,41,173,41*57
$QZGSV,1,1,,,,,,,,,,,,,0.0*4B
$QZGSA,1,1,,,,,,,,,,,,,0.0*5C
$GLGSA,A,3,68,69,70,78,80,81,88,,,,,,,,,0.6,*20
$GNGSA,A,3,12,14,18,22,25,29,31,32,,,,,1.2,0.6,1.0*28
$GNGSA,A,3,68,69,70,78,80,81,88,,,,,,1.2,0.6,1.0*20
$GPGGA,074051.000,3114.8857,N,12135.2453,E,1,15,0.6,174.7,M,8.3,M,,*66
$GPGLL,3114.8857,N,12135.2453,E,074051.000,A,A*5F
$GPRMC,074051.000,A,3114.8857,N,12135.2453,E,0.0,0.0,250215,,,A*69
$GPVTG,0.0,T,,M,0.0,N,0.0,K,A*0D
$GPGSV,3,1,09,08,00,000,43,12,10,038,41,14,72,050,48,18,05,165,29*7D
$GPGSV,3,2,09,22,35,194,38,25,47,044,47,29,24,104,44,31,52,309,48*7C
$GPGSV,3,3,09,32,37,297,46*4B
$GLGSV,3,1,09,78,20,037,28,82,09,100,33,70,20,328,34,80,30,265,45*6F
$GLGSV,3,2,09,79,53,347,45,69,70,281,42,88,09,061,28,81,08,112,34*61
$GLGSV,3,3,09,68,41,173,41*57
$QZGSV,1,1,,,,,,,,,,,,,0.0*4B
$QZGSA,1,1,,,,,,,,,,,,,0.0*5C
$GLGSA,A,3,68,69,70,78,80,81,88,,,,,,,,,0.6,*20
$GNGSA,A,3,12,14,18,22,25,29,31,32,,,,,1.2,0.6,1.0*28
$GNGSA,A,3,68,69,70,78,80,81,88,,,,,,1.2,0.6,1.0*20
$GPGGA,074052.000,3114.8857,N,12135.2453,E,1,15,0.6,174.7,M,8.3,M,,*65
$GPGLL,3114.8857,N,12135.2453,E,074052.000,A,A*5C
$GPRMC,074052.000,A,3114.8857,N,12135.2453,E,0.0,0.0,250215,,,A*6A
$GPVTG,0.0,T,,M,0.0,N,0.0,K,A*0D
$GPGSV,3,1,09,08,00,000,43,12,10,038,41,14,72,050,48,18,05,165,29*7D
$GPGSV,3,2,09,22,35,194,37,25,47,044,47,29,24,104,44,31,52,309,48*73
$GPGSV,3,3,09,32,37,297,46*4B
$GLGSV,3,1,09,78,20,037,28,82,09,100,32,70,20,328,34,80,30,265,45*6E
$GLGSV,3,2,09,79,53,347,45,69,70,281,42,88,09,061,28,81,08,112,34*61
$GLGSV,3,3,09,68,41,173,41*57
$QZGSV,1,1,,,,,,,,,,,,,0.0*4B
$QZGSA,1,1,,,,,,,,,,,,,0.0*5C
$GLGSA,A,3,68,69,70,78,80,81,88,,,,,,,,,0.6,*20
$GNGSA,A,3,12,14,18,22,25,29,31,32,,,,,1.2,0.6,1.0*28
$GNGSA,A,3,68,69,70,78,80,81,88,,,,,,1.2,0.6,1.0*20
$GPGGA,074053.000,3114.8857,N,12135.2453,E,1,15,0.6,174.7,M,8.3,M,,*64
$GPGLL,3114.8857,N,12135.2453,E,074053.000,A,A*5D
$GPRMC,074053.000,A,3114.8857,N,12135.2453,E,0.0,0.0,250215,,,A*6B
$GPVTG,0.0,T,,M,0.0,N,0.0,K,A*0D
$GPGSV,3,1,09,08,00,000,43,12,10,038,41,14,72,050,48,18,05,165,29*7D
$GPGSV,3,2,09,22,35,194,37,25,47,044,47,29,24,104,44,31,52,309,48*73
$GPGSV,3,3,09,32,37,297,46*4B
$GLGSV,3,1,09,78,20,037,27,82,09,100,32,70,20,328,34,80,30,265,45*61
$GLGSV,3,2,09,79,53,347,45,69,70,281,42,88,09,061,29,81,08,112,34*60
$GLGSV,3,3,09,68,41,173,41*57
$QZGSV,1,1,,,,,,,,,,,,,0.0*4B
$QZGSA,1,1,,,,,,,,,,,,,0.0*5C
$GLGSA,A,3,68,69,70,78,80,81,88,,,,,,,,,0.6,*20
$GNGSA,A,3,12,14,18,22,25,29,31,32,,,,,1.2,0.6,1.0*28
$GNGSA,A,3,68,69,70,78,80,81,88,,,,,,1.2,0.6,1.0*20
$GPGGA,074054.000,3114.8857,N,12135.2453,E,1,15,0.6,174.7,M,8.3,M,,*63
$GPGLL,3114.8857,N,12135.2453,E,074054.000,A,A*5A
$GPRMC,074054.000,A,3114.8857,N,12135.2453,E,0.0,0.0,250215,,,A*6C
$GPVTG,0.0,T,,M,0.0,N,0.0,K,A*0D
$GPGSV,3,1,09,08,00,000,43,12,10,038,42,14,72,050,48,18,05,165,29*7E
$GPGSV,3,2,09,22,35,194,37,25,47,044,47,29,24,104,44,31,52,309,48*73
$GPGSV,3,3,09,32,37,297,46*4B
$GLGSV,3,1,09,78,20,037,26,82,09,100,33,70,20,328,34,80,30,265,45*61
$GLGSV,3,2,09,79,53,347,45,69,70,281,42,88,09,061,32,81,08,112,34*6A
$GLGSV,3,3,09,68,41,173,41*57
$QZGSV,1,1,,,,,,,,,,,,,0.0*4B
$QZGSA,1,1,,,,,,,,,,,,,0.0*5C
$GLGSA,A,3,68,69,70,78,80,81,88,,,,,,,,,0.6,*20
$GNGSA,A,3,12,14,18,22,25,29,31,32,,,,,1.2,0.6,1.0*28
$GNGSA,A,3,68,69,70,78,80,81,88,,,,,,1.2,0.6,1.0*20
$GPGGA,074055.000,3114.8857,N,12135.2453,E,1,15,0.6,174.7,M,8.3,M,,*62
$GPGLL,3114.8857,N,12135.2453,E,074055.000,A,A*5B
$GPRMC,074055.000,A,3114.8857,N,12135.2453,E,0.0,0.0,250215,,,A*6D
$GPVTG,0.0,T,,M,0.0,N,0.0,K,A*0D
$GPGSV,3,1,09,08,00,000,43,12,10,038,42,14,72,050,48,18,05,165,29*7E
$GPGSV,3,2,09,22,35,194,37,25,47,044,47,29,24,104,44,31,52,309,48*73
$GPGSV,3,3,09,32,37,297,46*4B
$GLGSV,3,1,09,78,20,037,26,82,09,100,33,70,20,328,34,80,30,265,45*61
$GLGSV,3,2,09,79,53,347,45,69,70,281,42,88,09,061,36,81,08,112,35*6F
$GLGSV,3,3,09,68,41,173,41*57
$QZGSV,1,1,,,,,,,,,,,,,0.0*4B
$QZGSA,1,1,,,,,,,,,,,,,0.0*5C
$GLGSA,A,3,68,69,70,78,80,81,88,,,,,,,,,0.6,*20
$GNGSA,A,3,12,14,18,22,25,29,31,32,,,,,1.2,0.6,1.0*28
$GNGSA,A,3,68,69,70,78,80,81,88,,,,,,1.2,0.6,1.0*20
$GPGGA,074056.000,3114.8857,N,12135.2453,E,1,15,0.6,174.7,M,8.3,M,,*61
$GPGLL,3114.8857,N,12135.2453,E,074056.000,A,A*58
$GPRMC,074056.000,A,3114.8857,N,12135.2453,E,0.0,0.0,250215,,,A*6E
$GPVTG,0.0,T,,M,0.0,N,0.0,K,A*0D
$GPGSV,3,1,09,08,00,000,43,12,10,038,41,14,72,050,48,18,05,165,28*7C
$GPGSV,3,2,09,22,35,194,37,25,47,044,47,29,24,104,44,31,52,309,48*73
$GPGSV,3,3,09,32,37,297,46*4B
$GLGSV,3,1,09,78,20,037,26,82,09,100,32,70,20,328,34,80,30,265,45*60
$GLGSV,3,2,09,79,53,347,45,69,70,281,42,88,09,061,36,81,08,112,35*6F
$GLGSV,3,3,09,68,41,173,41*57
$QZGSV,1,1,,,,,,,,,,,,,0.0*4B
$QZGSA,1,1,,,,,,,,,,,,,0.0*5C
$GLGSA,A,3,68,69,70,78,80,81,88,,,,,,,,,0.6,*20
$GNGSA,A,3,12,14,18,22,25,29,31,32,,,,,1.2,0.6,1.0*28
$GNGSA,A,3,68,69,70,78,80,81,88,,,,,,1.2,0.6,1.0*20
$GPGGA,074057.000,3114.8857,N,12135.2453,E,1,15,0.6,174.7,M,8.3,M,,*60
$GPGLL,3114.8857,N,12135.2453,E,074057.000,A,A*59
$GPRMC,074057.000,A,3114.8857,N,12135.2453,E,0.0,0.0,250215,,,A*6F
$GPVTG,0.0,T,,M,0.0,N,0.0,K,A*0D
$GPGSV,3,1,09,08,00,000,43,12,10,038,41,14,72,050,48,18,05,165,28*7C
$GPGSV,3,2,09,22,35,194,36,25,47,044,47,29,24,104,44,31,52,309,48*72
$GPGSV,3,3,09,32,37,297,46*4B
$GLGSV,3,1,09,78,20,037,27,82,09,100,32,70,20,328,34,80,30,265,45*61
$GLGSV,3,2,09,79,53,347,45,69,70,281,42,88,09,061,36,81,08,112,35*6F
$GLGSV,3,3,09,68,41,173,41*57
$QZGSV,1,1,,,,,,,,,,,,,0.0*4B
$QZGSA,1,1,,,,,,,,,,,,,0.0*5C
$GLGSA,A,3,68,69,70,78,80,81,88,,,,,,,,,0.6,*20
$GNGSA,A,3,12,14,18,22,25,29,31,32,,,,,1.2,0.6,1.0*28
$GNGSA,A,3,68,69,70,78,80,81,88,,,,,,1.2,0.6,1.0*20
$GPGGA,074058.000,3114.8857,N,12135.2453,E,1,15,0.6,174.7,M,8.3,M,,*6F
$GPGLL,3114.8857,N,12135.2453,E,074058.000,A,A*56
$GPRMC,074058.000,A,3114.8857,N,12135.2453,E,0.0,0.0,250215,,,A*60
$GPVTG,0.0,T,,M,0.0,N,0.0,K,A*0D
$GPGSV,3,1,09,08,00,000,44,12,10,038,41,14,72,050,48,18,05,165,28*7B
$GPGSV,3,2,09,22,35,194,36,25,47,044,47,29,24,104,44,31,52,309,48*72
$GPGSV,3,3,09,32,37,297,46*4B
$GLGSV,3,1,09,78,20,037,27,82,09,100,32,70,20,328,34,80,30,265,45*61
$GLGSV,3,2,09,79,53,347,45,69,70,281,42,88,09,061,36,81,08,112,35*6F
$GLGSV,3,3,09,68,41,173,41*57
$QZGSV,1,1,,,,,,,,,,,,,0.0*4B
$QZGSA,1,1,,,,,,,,,,,,,0.0*5C
$GLGSA,A,3,68,69,70,78,80,81,88,,,,,,,,,0.6,*20
$GNGSA,A,3,12,14,18,22,25,29,31,32,,,,,1.2,0.6,1.0*28
$GNGSA,A,3,68,69,70,78,80,81,88,,,,,,1.2,0.6,1.0*20
$GPGGA,074059.000,3114.8857,N,12135.2453,E,1,15,0.6,174.7,M,8.3,M,,*6E
$GPGLL,3114.8857,N,12135.2453,E,074059.000,A,A*57
$GPRMC,074059.000,A,3114.8857,N,12135.2453,E,0.0,0.0,250215,,,A*61
$GPVTG,0.0,T,,M,0.0,N,0.0,K,A*0D
$GPGSV,3,1,09,08,00,000,44,12,10,038,41,14,72,050,48,18,05,165,28*7B
$GPGSV,3,2,09,22,35,194,36,25,47,044,47,29,24,104,44,31,52,309,48*72
$GPGSV,3,3,09,32,37,297,46*4B
$GLGSV,3,1,09,78,20,037,27,82,09,100,32,70,20,328,34,80,30,265,45*61
$GLGSV,3,2,09,79,53,347,45,69,70,281,42,88,09,061,36,81,08,112,35*6F
$GLGSV,3,3,09,68,41,173,41*57
$QZGSV,1,1,,,,,,,,,,,,,0.0*4B
$QZGSA,1,1,,,,,,,,,,,,,0.0*5C
$GLGSA,A,3,68,69,70,78,80,81,88,,,,,,,,,0.6,*20
$GNGSA,A,3,12,14,18,22,25,29,31,32,,,,,1.2,0.6,1.0*28
$GNGSA,A,3,68,69,70,78,80,81,88,,,,,,1.2,0.6,1.0*20
$GPGGA,074100.000,3114.8857,N,12135.2453,E,1,15,0.6,174.7,M,8.3,M,,*63
$GPGLL,3114.8857,N,12135.2453,E,074100.000,A,A*5A
$GPRMC,074100.000,A,3114.8857,N,12135.2453,E,0.0,0.0,250215,,,A*6C
$GPVTG,0.0,T,,M,0.0,N,0.0,K,A*0D
$GPGSV,3,1,09,08,00,000,44,12,10,038,41,14,72,050,48,18,05,165,28*7B
$GPGSV,3,2,09,22,35,194,36,25,47,044,47,29,24,104,44,31,52,309,48*72
$GPGSV,3,3,09,32,37,297,46*4B
$GLGSV,3,1,09,78,20,037,27,82,09,100,32,70,20,328,34,80,30,265,44*60
$GLGSV,3,2,09,79,53,347,45,69,70,281,42,88,09,061,36,81,08,112,35*6F
$GLGSV,3,3,09,68,41,173,41*57
$QZGSV,1,1,,,,,,,,,,,,,0.0*4B
$QZGSA,1,1,,,,,,,,,,,,,0.0*5C
$GLGSA,A,3,68,69,70,78,80,81,88,,,,,,,,,0.6,*20
$GNGSA,A,3,12,14,18,22,25,29,31,32,,,,,1.2,0.6,1.0*28
$GNGSA,A,3,68,69,70,78,80,81,88,,,,,,1.2,0.6,1.0*20
$GPGGA,074101.000,3114.8857,N,12135.2453,E,1,15,0.6,174.7,M,8.3,M,,*62
$GPGLL,3114.8857,N,12135.2453,E,074101.000,A,A*5B
$GPRMC,074101.000,A,3114.8857,N,12135.2453,E,0.0,0.0,250215,,,A*6D
$GPVTG,0.0,T,,M,0.0,N,0.0,K,A*0D
$GPGSV,3,1,09,08,00,000,44,12,10,038,41,14,72,050,48,18,05,165,28*7B
$GPGSV,3,2,09,22,35,194,35,25,47,044,47,29,24,104,44,31,52,309,48*71
$GPGSV,3,3,09,32,37,297,46*4B
$GLGSV,3,1,09,78,20,037,27,82,09,100,32,70,20,328,34,80,30,265,44*60
$GLGSV,3,2,09,79,53,347,45,69,70,281,42,88,09,061,36,81,08,112,35*6F
$GLGSV,3,3,09,68,41,173,41*57
$QZGSV,1,1,,,,,,,,,,,,,0.0*4B
$QZGSA,1,1,,,,,,,,,,,,,0.0*5C
$GLGSA,A,3,68,69,70,78,80,81,88,,,,,,,,,0.6,*20
$GNGSA,A,3,12,14,18,22,25,29,31,32,,,,,1.2,0.6,1.0*28
$GNGSA,A,3,68,69,70,78,80,81,88,,,,,,1.2,0.6,1.0*20
$GPGGA,074102.000,3114.8857,N,12135.2453,E,1,15,0.6,174.7,M,8.3,M,,*61
$GPGLL,3114.8857,N,12135.2453,E,074102.000,A,A*58
$GPRMC,074102.000,A,3114.8857,N,12135.2453,E,0.0,0.0,250215,,,A*6E
$GPVTG,0.0,T,,M,0.0,N,0.0,K,A*0D
$GPGSV,3,1,09,08,00,000,44,12,10,038,41,14,72,050,48,18,05,165,28*7B
$GPGSV,3,2,09,22,35,194,35,25,47,044,47,29,24,104,44,31,52,309,48*71
$GPGSV,3,3,09,32,37,297,46*4B
$GLGSV,3,1,09,78,20,037,27,82,09,100,32,70,20,328,34,80,30,265,44*60
$GLGSV,3,2,09,79,53,347,45,69,70,281,42,88,09,061,35,81,08,112,35*6C
$GLGSV,3,3,09,68,41,173,41*57
$QZGSV,1,1,,,,,,,,,,,,,0.0*4B
$QZGSA,1,1,,,,,,,,,,,,,0.0*5C
$GLGSA,A,3,68,69,70,78,80,81,88,,,,,,,,,0.6,*20
$GNGSA,A,3,12,14,18,22,25,29,31,32,,,,,1.2,0.6,1.0*28
$GNGSA,A,3,68,69,70,78,80,81,88,,,,,,1.2,0.6,1.0*20
$GPGGA,074103.000,3114.8857,N,12135.2453,E,1,15,0.6,174.7,M,8.3,M,,*60
$GPGLL,3114.8857,N,12135.2453,E,074103.000,A,A*59
$GPRMC,074103.000,A,3114.8857,N,12135.2453,E,0.0,0.0,250215,,,A*6F
$GPVTG,0.0,T,,M,0.0,N,0.0,K,A*0D
$GPGSV,3,1,09,08,00,000,44,12,10,038,41,14,72,050,48,18,05,165,28*7B
$GPGSV,3,2,09,22,35,194,35,25,47,044,47,29,24,104,44,31,52,309,48*71
$GPGSV,3,3,09,32,37,297,46*4B
$GLGSV,3,1,09,78,20,037,28,82,09,100,32,70,20,328,34,80,30,265,44*6F
$GLGSV,3,2,09,79,53,347,45,69,70,281,42,88,09,061,35,81,08,112,35*6C
$GLGSV,3,3,09,68,41,173,41*57
$QZGSV,1,1,,,,,,,,,,,,,0.0*4B
$QZGSA,1,1,,,,,,,,,,,,,0.0*5C
$GLGSA,A,3,68,69,70,78,80,81,88,,,,,,,,,0.6,*20
$GNGSA,A,3,12,14,18,22,25,29,31,32,,,,,1.2,0.6,1.0*28
$GNGSA,A,3,68,69,70,78,80,81,88,,,,,,1.2,0.6,1.0*20
$GPGGA,074104.000,3114.8857,N,12135.2453,E,1,15,0.6,174.7,M,8.3,M,,*67
$GPGLL,3114.8857,N,12135.2453,E,074104.000,A,A*5E
$GPRMC,074104.000,A,3114.8857,N,12135.2453,E,0.0,0.0,250215,,,A*68
$GPVTG,0.0,T,,M,0.0,N,0.0,K,A*0D
$GPGSV,3,1,09,08,00,000,44,12,10,038,41,14,72,050,48,18,05,165,28*7B
$GPGSV,3,2,09,22,35,194,32,25,47,044,47,29,24,104,44,31,52,309,48*76
$GPGSV,3,3,09,32,37,297,46*4B
$GLGSV,3,1,09,78,20,037,28,82,09,100,32,70,20,328,34,80,30,265,44*6F
$GLGSV,3,2,09,79,53,347,45,69,70,281,42,88,09,061,35,81,08,112,35*6C
$GLGSV,3,3,09,68,41,173,41*57
$QZGSV,1,1,,,,,,,,,,,,,0.0*4B
$QZGSA,1,1,,,,,,,,,,,,,0.0*5C
$GLGSA,A,3,68,69,70,78,80,81,88,,,,,,,,,0.6,*20
$GNGSA,A,3,12,14,18,22,25,29,31,32,,,,,1.2,0.6,1.0*28
$GNGSA,A,3,68,69,70,78,80,81,88,,,,,,1.2,0.6,1.0*20
$GPGGA,074105.000,3114.8857,N,12135.2453,E,1,15,0.6,174.7,M,8.3,M,,*66
$GPGLL,3114.8857,N,12135.2453,E,074105.000,A,A*5F
$GPRMC,074105.000,A,3114.8857,N,12135.2453,E,0.0,0.0,250215,,,A*69
$GPVTG,0.0,T,,M,0.0,N,0.0,K,A*0D
$GPGSV,3,1,09,08,00,000,44,12,10,038,41,14,72,050,48,18,05,165,28*7B
$GPGSV,3,2,09,22,35,194,30,25,47,044,47,29,24,104,44,31,52,309,49*75
$GPGSV,3,3,09,32,37,297,46*4B
$GLGSV,3,1,09,78,20,037,28,82,09,100,32,70,20,328,34,80,30,265,44*6F
$GLGSV,3,2,09,79,53,347,45,69,70,281,42,88,09,061,35,81,08,112,35*6C
$GLGSV,3,3,09,68,41,173,41*57
$QZGSV,1,1,,,,,,,,,,,,,0.0*4B
$QZGSA,1,1,,,,,,,,,,,,,0.0*5C
$GLGSA,A,3,68,69,70,78,79,80,81,88,,,,,,,,0.6,*2E
$GNGSA,A,3,12,14,18,22,25,29,31,32,,,,,1.2,0.6,1.0*28
$GNGSA,A,3,68,69,70,78,79,80,81,88,,,,,1.2,0.6,1.0*2E
$GPGGA,074106.000,3114.8857,N,12135.2453,E,1,16,0.6,174.7,M,8.3,M,,*66
$GPGLL,3114.8857,N,12135.2453,E,074106.000,A,A*5C
$GPRMC,074106.000,A,3114.8857,N,12135.2453,E,0.0,0.0,250215,,,A*6A
$GPVTG,0.0,T,,M,0.0,N,0.0,K,A*0D
$GPGSV,3,1,09,08,00,000,44,12,10,038,41,14,73,051,48,18,08,168,28*7B
$GPGSV,3,2,09,22,34,194,30,25,47,043,47,29,24,104,44,31,52,309,49*73
$GPGSV,3,3,09,32,37,296,46*4A
$GLGSV,3,1,09,78,20,037,28,82,09,100,31,70,20,328,34,80,31,266,44*6E
$GLGSV,3,2,09,79,52,348,45,69,70,280,42,88,09,061,35,81,08,112,35*63
$GLGSV,3,3,09,68,41,173,41*57
$QZGSV,1,1,,,,,,,,,,,,,0.0*4B
$QZGSA,1,1,,,,,,,,,,,,,0.0*5C
$GLGSA,A,3,68,69,70,78,79,80,81,88,,,,,,,,0.6,*2E
$GNGSA,A,3,12,14,18,22,25,29,31,32,,,,,1.2,0.6,1.0*28
$GNGSA,A,3,68,69,70,78,79,80,81,88,,,,,1.2,0.6,1.0*2E
$GPGGA,074107.000,3114.8857,N,12135.2453,E,1,16,0.6,174.7,M,8.3,M,,*67
$GPGLL,3114.8857,N,12135.2453,E,074107.000,A,A*5D
$GPRMC,074107.000,A,3114.8857,N,12135.2453,E,0.0,0.0,250215,,,A*6B
$GPVTG,0.0,T,,M,0.0,N,0.0,K,A*0D
$GPGSV,3,1,09,08,00,000,44,12,10,038,40,14,73,051,48,18,08,168,28*7A
$GPGSV,3,2,09,22,34,194,30,25,47,043,47,29,24,104,44,31,52,309,49*73
$GPGSV,3,3,09,32,37,296,46*4A
$GLGSV,3,1,09,78,20,037,28,82,09,100,31,70,20,328,34,80,31,266,44*6E
$GLGSV,3,2,09,79,52,348,45,69,70,280,42,88,09,061,35,81,08,112,35*63
$GLGSV,3,3,09,68,41,173,41*57
$QZGSV,1,1,,,,,,,,,,,,,0.0*4B
$QZGSA,1,1,,,,,,,,,,,,,0.0*5C
$GLGSA,A,3,68,69,70,78,79,80,81,88,,,,,,,,0.6,*2E
$GNGSA,A,3,12,14,18,22,25,29,31,32,,,,,1.2,0.6,1.0*28
$GNGSA,A,3,68,69,70,78,79,80,81,88,,,,,1.2,0.6,1.0*2E
$GPGGA,074108.000,3114.8857,N,12135.2453,E,1,16,0.6,174.7,M,8.3,M,,*68
$GPGLL,3114.8857,N,12135.2453,E,074108.000,A,A*52
$GPRMC,074108.000,A,3114.8857,N,12135.2453,E,0.0,0.0,250215,,,A*64
$GPVTG,0.0,T,,M,0.0,N,0.0,K,A*0D
$GPGSV,3,1,09,08,00,000,44,12,10,038,40,14,73,051,48,18,08,168,27*75
$GPGSV,3,2,09,22,34,194,30,25,47,043,47,29,24,104,44,31,52,309,49*73
$GPGSV,3,3,09,32,37,296,46*4A
$GLGSV,3,1,09,78,20,037,28,82,09,100,31,70,20,328,34,80,31,266,44*6E
$GLGSV,3,2,09,79,52,348,45,69,70,280,42,88,09,061,34,81,08,112,35*62
$GLGSV,3,3,09,68,41,173,41*57
$QZGSV,1,1,,,,,,,,,,,,,0.0*4B
$QZGSA,1,1,,,,,,,,,,,,,0.0*5C
$GLGSA,A,3,68,69,70,78,79,80,81,88,,,,,,,,0.6,*2E
$GNGSA,A,3,12,14,18,22,25,29,31,32,,,,,1.2,0.6,1.0*28
$GNGSA,A,3,68,69,70,78,79,80,81,88,,,,,1.2,0.6,1.0*2E
$GPGGA,074109.000,3114.8857,N,12135.2453,E,1,16,0.6,174.7,M,8.3,M,,*69
$GPGLL,3114.8857,N,12135.2453,E,074109.000,A,A*53
$GPRMC,074109.000,A,3114.8857,N,12135.2453,E,0.0,0.0,250215,,,A*65
$GPVTG,0.0,T,,M,0.0,N,0.0,K,A*0D
$GPGSV,3,1,09,08,00,000,44,12,10,038,40,14,73,051,48,18,08,168,27*75
$GPGSV,3,2,09,22,34,194,30,25,47,043,47,29,24,104,44,31,52,309,49*73
$GPGSV,3,3,09,32,37,296,46*4A
$GLGSV,3,1,09,78,20,037,28,82,09,100,31,70,20,328,35,80,31,266,44*6F
$GLGSV,3,2,09,79,52,348,45,69,70,280,42,88,09,061,31,81,08,112,35*67
$GLGSV,3,3,09,68,41,173,41*57
$QZGSV,1,1,,,,,,,,,,,,,0.0*4B
$QZGSA,1,1,,,,,,,,,,,,,0.0*5C
